{"type": "FeatureCollection", "features": [{"type": "Feature", "geometry": {"type": "Point", "coordinates": [-97.955058, 35.532198]}, "properties": {"Occurred": "12/22/2007", "City": "El Reno", "State": "OK", "Country": "USA", "Shape": "Changing", "Summary": "COLOR CHANGING STROBE LIGHT OVER EL RENO, OK"}}, {"type": "Feature", "geometry": {"type": "Point", "coordinates": [-97.955058, 35.532198]}, "properties": {"Occurred": "4/17/1937", "City": "El Reno", "State": "OK", "Country": "USA", "Shape": "Oval", "Summary": "UFO over lucky star caught on camera up close."}}, {"type": "Feature", "geometry": {"type": "Point", "coordinates": [-97.955058, 35.532198]}, "properties": {"Occurred": "4/15/1946", "City": "El Reno", "State": "OK", "Country": "USA", "Shape": "Fireball", "Summary": "10 Orange orbs hovering in the sky then faded out."}}, {"type": "Feature", "geometry": {"type": "Point", "coordinates": [-97.955058, 35.532198]}, "properties": {"Occurred": "4/17/2002", "City": "El Reno", "State": "OK", "Country": "USA", "Shape": "Other", "Summary": "Strange Sights into the night!"}}, {"type": "Feature", "geometry": {"type": "Point", "coordinates": [-97.955058, 35.532198]}, "properties": {"Occurred": "7/23/2023", "City": "El Reno", "State": "OK", "Country": "USA", "Shape": "Orb", "Summary": "Orb of light flashing arc of light that as it went out like a shock wave lit up the sky and slowly disappeared in cloud of light"}}, {"type": "Feature", "geometry": {"type": "Point", "coordinates": [-97.955058, 35.532198]}, "properties": {"Occurred": "9/13/2003", "City": "El Reno", "State": "OK", "Country": "USA", "Shape": "Triangle", "Summary": "Strange Lights at El Reno Scales"}}, {"type": "Feature", "geometry": {"type": "Point", "coordinates": [-97.955058, 35.532198]}, "properties": {"Occurred": "12/1/2001", "City": "El Reno", "State": "OK", "Country": "USA", "Shape": "Formation", "Summary": "One large cigar-shaped craft surrounded by hundreds of smammer crafts all with long trails."}}, {"type": "Feature", "geometry": {"type": "Point", "coordinates": [-97.955058, 35.532198]}, "properties": {"Occurred": "7/3/2008", "City": "El Reno", "State": "OK", "Country": "USA", "Shape": "Diamond", "Summary": "White diamond shape' (s) over El Reno, Oklahoma"}}, {"type": "Feature", "geometry": {"type": "Point", "coordinates": [-97.955058, 35.532198]}, "properties": {"Occurred": "1/1/1981", "City": "El Reno", "State": "OK", "Country": "USA", "Shape": "Disk", "Summary": "New Years 1981 Crashing Disc"}}, {"type": "Feature", "geometry": {"type": "Point", "coordinates": [-107.300043, 34.999212]}, "properties": {"Occurred": "11/20/2003", "City": "El Rito", "State": "NM", "Country": "USA", "Shape": "Fireball", "Summary": "A bright yellow egg-shaped firey object suddenly appeared in the west on 11/20/03 at l7:30 hours, suddenly vanishing and leaving a smok"}}, {"type": "Feature", "geometry": {"type": "Point", "coordinates": [-107.300043, 34.999212]}, "properties": {"Occurred": "5/27/2021", "City": "El Rito", "State": "NM", "Country": "USA", "Shape": "Formation", "Summary": "Multiple changing colored lights following a path"}}, {"type": "Feature", "geometry": {"type": "Point", "coordinates": [-107.300043, 34.999212]}, "properties": {"Occurred": "5/28/2009", "City": "El Rito", "State": "NM", "Country": "USA", "Shape": "Light", "Summary": "Bright object descended rapidly, leaving a shower of sparks, and turned in a J shape, then stayed the same."}}, {"type": "Feature", "geometry": {"type": "Point", "coordinates": [-118.415634, 33.917028]}, "properties": {"Occurred": "1/1/1994", "City": "El Segundo", "State": "CA", "Country": "USA", "Shape": "Other", "Summary": "What I'm seeing, please help."}}, {"type": "Feature", "geometry": {"type": "Point", "coordinates": [-118.415634, 33.917028]}, "properties": {"Occurred": "4/12/2008", "City": "El Segundo", "State": "CA", "Country": "USA", "Shape": "Light", "Summary": "3 UFOs flying over LAX airport."}}, {"type": "Feature", "geometry": {"type": "Point", "coordinates": [-118.415634, 33.917028]}, "properties": {"Occurred": "1/7/2004", "City": "El Segundo", "State": "CA", "Country": "USA", "Shape": "Sphere", "Summary": "High speed ball follows jet, and becomes two smaller objects."}}, {"type": "Feature", "geometry": {"type": "Point", "coordinates": [-118.415634, 33.917028]}, "properties": {"Occurred": "1/2/2004", "City": "El Segundo", "State": "CA", "Country": "USA", "Shape": "Triangle", "Summary": "Bright shiny triangular object droped from the sky then vanished"}}, {"type": "Feature", "geometry": {"type": "Point", "coordinates": [-118.415634, 33.917028]}, "properties": {"Occurred": "3/3/2002", "City": "El Segundo", "State": "CA", "Country": "USA", "Shape": "Sphere", "Summary": "silver sphere over refinery by LAX"}}, {"type": "Feature", "geometry": {"type": "Point", "coordinates": [-118.415634, 33.917028]}, "properties": {"Occurred": "1/9/2006", "City": "El Segundo", "State": "CA", "Country": "USA", "Shape": "Fireball", "Summary": "Rotating fire ball moving very fast, few hundred feet above the ground, south east end of LAX"}}, {"type": "Feature", "geometry": {"type": "Point", "coordinates": [-118.415634, 33.917028]}, "properties": {"Occurred": "1/1/1994", "City": "El Segundo", "State": "CA", "Country": "USA", "Shape": "Other", "Summary": "What I'm seeing, please help."}}, {"type": "Feature", "geometry": {"type": "Point", "coordinates": [-118.415634, 33.917028]}, "properties": {"Occurred": "4/24/1981", "City": "El Segundo", "State": "CA", "Country": "USA", "Shape": "Other", "Summary": "I saw a pitch-black flying wing shaped object soar across a brightly lit area and then vanish into the dark."}}, {"type": "Feature", "geometry": {"type": "Point", "coordinates": [-118.415634, 33.917028]}, "properties": {"Occurred": "2/18/2009", "City": "El Segundo", "State": "CA", "Country": "USA", "Shape": "Orb", "Summary": "Floating Orb over LAX"}}, {"type": "Feature", "geometry": {"type": "Point", "coordinates": [-118.415634, 33.917028]}, "properties": {"Occurred": "4/6/1985", "City": "El Segundo", "State": "CA", "Country": "USA", "Shape": "Disk", "Summary": "Sighting off in El Porto (popular surfing area) in El Segundo, CA."}}, {"type": "Feature", "geometry": {"type": "Point", "coordinates": [-122.294989, 37.977448]}, "properties": {"Occurred": "2/27/2020", "City": "El Sobrante", "State": "CA", "Country": "USA", "Shape": "Circle", "Summary": "There were 20 to 30 Lights flying in a single formation real fast. ((\"Starlink\" satellites??))"}}, {"type": "Feature", "geometry": {"type": "Point", "coordinates": [-122.294989, 37.977448]}, "properties": {"Occurred": "2/16/1975", "City": "El Sobrante", "State": "CA", "Country": "USA", "Shape": "Circle", "Summary": "Bright, yellow/orange circle, 10 ft. in diameter, silent, slow moving, 5mph, 50 ft. above ground-2 minutes, chased & threw rocks at it."}}, {"type": "Feature", "geometry": {"type": "Point", "coordinates": [-122.294989, 37.977448]}, "properties": {"Occurred": "4/8/2020", "City": "El Sobrante", "State": "CA", "Country": "USA", "Shape": "Circle", "Summary": "3 circular objects passing in front of moon in El Sobrante California."}}, {"type": "Feature", "geometry": {"type": "Point", "coordinates": [-122.294989, 37.977448]}, "properties": {"Occurred": "4/15/2020", "City": "El Sobrante", "State": "CA", "Country": "USA", "Shape": "Formation", "Summary": "Around 5:20am i looked up and saw a line of ufo's at first i counted 10. ((Starlink satellites))"}}, {"type": "Feature", "geometry": {"type": "Point", "coordinates": [-122.294989, 37.977448]}, "properties": {"Occurred": "5/30/2001", "City": "El Sobrante", "State": "CA", "Country": "USA", "Shape": "Disk", "Summary": "My dog woke me up at 3:20 AM, whining as though he had to go do his duty. It is extremely rare that he will wake me up. I got up, let t"}}, {"type": "Feature", "geometry": {"type": "Point", "coordinates": [-86.067724, 31.414611]}, "properties": {"Occurred": "6/15/1976", "City": "Elba", "State": "AL", "Country": "USA", "Shape": "Cigar", "Summary": "We stopped at Dairy Queen had supper. Going to my aunt an uncle three hours away It was dusty dark came to three trundle Bridges shoul"}}, {"type": "Feature", "geometry": {"type": "Point", "coordinates": [-78.187021, 43.077378]}, "properties": {"Occurred": "6/6/1998", "City": "Elba", "State": "NY", "Country": "USA", "Shape": "Light", "Summary": "Saw brief white light travel allong the horizon, stop midflight and then continue on a different course, at extreem rates of exellera"}}, {"type": "Feature", "geometry": {"type": "Point", "coordinates": [-78.187021, 43.077378]}, "properties": {"Occurred": "4/14/1984", "City": "Elba", "State": "NY", "Country": "USA", "Shape": "Circle", "Summary": "Multiple ufo"}}, {"type": "Feature", "geometry": {"type": "Point", "coordinates": [-86.067724, 31.414611]}, "properties": {"Occurred": "9/16/2003", "City": "Elba", "State": "AL", "Country": "USA", "Shape": "Light", "Summary": "light in sky changing course moving at rapid rate of speed, no sound. Four witnesses"}}, {"type": "Feature", "geometry": {"type": "Point", "coordinates": [-122.193539, 46.764639]}, "properties": {"Occurred": "8/13/2001", "City": "Elbe", "State": "WA", "Country": "USA", "Shape": "Oval", "Summary": "3 blue lights and 1 large orange object in the night sky NW of Mt Ranier."}}, {"type": "Feature", "geometry": {"type": "Point", "coordinates": [-87.448348, 38.159767]}, "properties": {"Occurred": "4/11/2023", "City": "Elberfeld", "State": "IN", "Country": "USA", "Shape": "Light", "Summary": "3 stars orions belt. Inside left of orions belt stars bright light very fast 4 times same star and stop."}}, {"type": "Feature", "geometry": {"type": "Point", "coordinates": [-87.448348, 38.159767]}, "properties": {"Occurred": "11/16/1999", "City": "Elberfeld", "State": "IN", "Country": "USA", "Shape": "Fireball", "Summary": "I was traveling home from work on I164 from Evansville, IN to Oakland City, IN. As I was approaching the I64 crossover, I saw a bright"}}, {"type": "Feature", "geometry": {"type": "Point", "coordinates": [-87.448348, 38.159767]}, "properties": {"Occurred": "7/15/2003", "City": "Elberfeld", "State": "IN", "Country": "USA", "Shape": "Light", "Summary": "3 orange globes."}}, {"type": "Feature", "geometry": {"type": "Point", "coordinates": [-76.883572, 37.074316]}, "properties": {"Occurred": "4/24/2015", "City": "Elberon", "State": "VA", "Country": "USA", "Shape": "Disk", "Summary": "This is incredible being it was taken with two different games cams. This rules out human error. movement to set them off"}}, {"type": "Feature", "geometry": {"type": "Point", "coordinates": [-76.883572, 37.074316]}, "properties": {"Occurred": "8/31/2003", "City": "Elberon", "State": "VA", "Country": "USA", "Shape": "Other", "Summary": "An object appearing to be wide with four lights, hovering, two on each end, with the outer lights being slightly larger than the 2nd"}}, {"type": "Feature", "geometry": {"type": "Point", "coordinates": [-104.536717, 39.219154]}, "properties": {"Occurred": "4/25/2020", "City": "Elbert", "State": "CO", "Country": "USA", "Shape": "Formation", "Summary": "vertical formation of stars connected by a straight, bright white light."}}, {"type": "Feature", "geometry": {"type": "Point", "coordinates": [-104.536717, 39.219154]}, "properties": {"Occurred": "4/24/1949", "City": "Elbert", "State": "CO", "Country": "USA", "Shape": "Other", "Summary": "String of 5 Total Lights That Slowly Moved In A Span Of About 15 Minutes"}}, {"type": "Feature", "geometry": {"type": "Point", "coordinates": [-87.595408, 30.407013]}, "properties": {"Occurred": "4/30/2022", "City": "Elberta", "State": "AL", "Country": "USA", "Shape": "Light", "Summary": "First spotted over water then 6 miles down the road and an hour later the same lights appear at my house ((NUFORC Note: Two planets.))"}}, {"type": "Feature", "geometry": {"type": "Point", "coordinates": [-87.595408, 30.407013]}, "properties": {"Occurred": "4/21/1988", "City": "Elberta", "State": "AL", "Country": "USA", "Shape": "Fireball", "Summary": "Two bright orange fireballs moving from north to south at a high rate of speed."}}, {"type": "Feature", "geometry": {"type": "Point", "coordinates": [-87.595408, 30.407013]}, "properties": {"Occurred": "10/1/2019", "City": "Elberta", "State": "AL", "Country": "USA", "Shape": "Orb", "Summary": "The incident took place at 1900 hours on October 1st 2019 in Elberta, Alabama. He primary witness gazed up into the relatively dark sky"}}, {"type": "Feature", "geometry": {"type": "Point", "coordinates": [-87.595408, 30.407013]}, "properties": {"Occurred": "6/6/2002", "City": "Elberta", "State": "AL", "Country": "USA", "Shape": "Light", "Summary": "A stationary light no different in appearance then a star started to move in a straight line south at a high rate of speed and then dis"}}, {"type": "Feature", "geometry": {"type": "Point", "coordinates": [-95.976721, 45.994127]}, "properties": {"Occurred": "4/22/1930", "City": "Elbow Lake", "State": "MN", "Country": "USA", "Shape": "Circle", "Summary": "Red ball of light shooting down from the sky slowly then rapidly shot toward the ground, and vanished."}}, {"type": "Feature", "geometry": {"type": "Point", "coordinates": [-76.447991, 43.03451]}, "properties": {"Occurred": "1/30/1995", "City": "Elbridge", "State": "NY", "Country": "USA", "Shape": "Other", "Summary": "copper colored-top shaped UFO sighted in elbridge,ny"}}, {"type": "Feature", "geometry": {"type": "Point", "coordinates": [-88.472301, 41.89225]}, "properties": {"Occurred": "9/18/2023", "City": "Elburn", "State": "IL", "Country": "USA", "Shape": "Oval", "Summary": "High altitude, 3 contrails, strange shape. Suspected due to the reflection of the Sun but honestly can't tell it is really weird."}}, {"type": "Feature", "geometry": {"type": "Point", "coordinates": [-88.472301, 41.89225]}, "properties": {"Occurred": "4/3/1946", "City": "Elburn", "State": "IL", "Country": "USA", "Shape": "Fireball", "Summary": "A large, amber glowing circular flying object was spotted, staying stationary for 40 secs before shifting to the left and disappearing"}}, {"type": "Feature", "geometry": {"type": "Point", "coordinates": [-88.472301, 41.89225]}, "properties": {"Occurred": "4/17/1990", "City": "Elburn", "State": "IL", "Country": "USA", "Shape": "Fireball", "Summary": "Driving west in Elburn, four passengers spotted four bright orange fireballs flying extremely fast in a straight diagonal line."}}, {"type": "Feature", "geometry": {"type": "Point", "coordinates": [-89.183475, 45.435841]}, "properties": {"Occurred": "2/19/2002", "City": "Elcho", "State": "WI", "Country": "USA", "Shape": "Circle", "Summary": "My mother came into my room,told me to look out the window, East, a cluster of lights( 4or 5) went from N to S in the distance above th"}}, {"type": "Feature", "geometry": {"type": "Point", "coordinates": [-89.183475, 45.435841]}, "properties": {"Occurred": "4/22/1998", "City": "Elcho", "State": "WI", "Country": "USA", "Shape": "Triangle", "Summary": "V-like shape craft above Langlade County WI USA"}}, {"type": "Feature", "geometry": {"type": "Point", "coordinates": [-89.183475, 45.435841]}, "properties": {"Occurred": "7/10/2004", "City": "Elcho", "State": "WI", "Country": "USA", "Shape": "Diamond", "Summary": "Multi-colored flashing lights hovering over small-town in Wisconsin"}}, {"type": "Feature", "geometry": {"type": "Point", "coordinates": [-89.183475, 45.435841]}, "properties": {"Occurred": "11/5/2004", "City": "Elcho", "State": "WI", "Country": "USA", "Shape": "Fireball", "Summary": "clear blue sky big fireball with lots of white smoke looked huge"}}, {"type": "Feature", "geometry": {"type": "Point", "coordinates": [-79.874084, 40.079006]}, "properties": {"Occurred": "4/30/2018", "City": "Elco", "State": "PA", "Country": "USA", "Shape": "Light", "Summary": "I first saw a tiny dot at very high altitude, way too high to be an airliner, so I checked the position of the ISS and determined it wa"}}, {"type": "Feature", "geometry": {"type": "Point", "coordinates": [-76.950257, 39.403715]}, "properties": {"Occurred": "4/18/2024", "City": "Eldersburg", "State": "MD", "Country": "USA", "Shape": "Orb", "Summary": "We were on the back deck watching the fireworks, 20 minutes after they were done, saw 5 round orange orbs floating horizontally across"}}, {"type": "Feature", "geometry": {"type": "Point", "coordinates": [-76.950257, 39.403715]}, "properties": {"Occurred": "4/2/1957", "City": "Eldersburg", "State": "MD", "Country": "USA", "Shape": "Disk", "Summary": "Saucer shaped UFO with circularly flashing lights seen seemingly following highway."}}, {"type": "Feature", "geometry": {"type": "Point", "coordinates": [-92.580524, 38.349446]}, "properties": {"Occurred": "4/19/1937", "City": "Eldon", "State": "MO", "Country": "USA", "Shape": "Triangle", "Summary": "I was on my way home from a children's Halloween event and there was a triangle shape with yellowish or orange lights above the truck s"}}, {"type": "Feature", "geometry": {"type": "Point", "coordinates": [-92.580524, 38.349446]}, "properties": {"Occurred": "4/19/2018", "City": "Eldon", "State": "MO", "Country": "USA", "Shape": "Rectangle", "Summary": "huge triangle shaped with lights on the side huge roaring sound"}}, {"type": "Feature", "geometry": {"type": "Point", "coordinates": [-92.580524, 38.349446]}, "properties": {"Occurred": "8/15/2004", "City": "Eldon", "State": "MO", "Country": "USA", "Shape": "Light", "Summary": "bright red light zig zag across sky then disappear"}}, {"type": "Feature", "geometry": {"type": "Point", "coordinates": [-92.580524, 38.349446]}, "properties": {"Occurred": "8/19/2006", "City": "Eldon", "State": "MO", "Country": "USA", "Shape": "Light", "Summary": "Extreme speeds and angles of an UFO"}}, {"type": "Feature", "geometry": {"type": "Point", "coordinates": [-93.099609, 42.360688]}, "properties": {"Occurred": "7/4/2008", "City": "Eldora", "State": "IA", "Country": "USA", "Shape": "Disk", "Summary": "Very large disk shaped ufo stopped in mid air a number of times."}}, {"type": "Feature", "geometry": {"type": "Point", "coordinates": [-93.099609, 42.360688]}, "properties": {"Occurred": "4/26/1984", "City": "Eldora", "State": "IA", "Country": "USA", "Shape": "Light", "Summary": "Green light and green ring."}}, {"type": "Feature", "geometry": {"type": "Point", "coordinates": [-93.099609, 42.360688]}, "properties": {"Occurred": "8/15/2009", "City": "Eldora", "State": "IA", "Country": "USA", "Shape": "Rectangle", "Summary": "Large, horizontal, whitish rectangle seen during the day."}}, {"type": "Feature", "geometry": {"type": "Point", "coordinates": [-93.099609, 42.360688]}, "properties": {"Occurred": "4/26/1984", "City": "Eldora", "State": "IA", "Country": "USA", "Shape": "Light", "Summary": "Three friends and I were walking at about 9:50. Not long after that, the area around us was lit up by a green ring. This green ring/lig"}}, {"type": "Feature", "geometry": {"type": "Point", "coordinates": [-100.599142, 30.860111]}, "properties": {"Occurred": "11/9/2007", "City": "Eldorado", "State": "TX", "Country": "USA", "Shape": "Cigar", "Summary": "two cigar shaped objects slowly crossing over road"}}, {"type": "Feature", "geometry": {"type": "Point", "coordinates": [-100.599142, 30.860111]}, "properties": {"Occurred": "4/4/1934", "City": "Eldorado", "State": "TX", "Country": "USA", "Shape": "Triangle", "Summary": "Ufo in west TX"}}, {"type": "Feature", "geometry": {"type": "Point", "coordinates": [-88.438103, 37.813658]}, "properties": {"Occurred": "4/7/2027", "City": "Eldorado", "State": "IL", "Country": "USA", "Shape": "Changing", "Summary": "Hundreds of people witness 6 different ufo's checked out and seemed threatened by a fireworks display in southern IL"}}, {"type": "Feature", "geometry": {"type": "Point", "coordinates": [-87.617239, 33.922884]}, "properties": {"Occurred": "9/4/2008", "City": "Eldridge", "State": "AL", "Country": "USA", "Shape": "Diamond", "Summary": "09/04/08 eldridge,al diamond object 0.5 seconds"}}, {"type": "Feature", "geometry": {"type": "Point", "coordinates": [-92.74907, 37.82976]}, "properties": {"Occurred": "4/18/1959", "City": "Eldridge", "State": "MO", "Country": "USA", "Shape": "Circle", "Summary": "I noticed in the sky above me, a stationary orange ball that seemed to be glowing with a slight flicker."}}, {"type": "Feature", "geometry": {"type": "Point", "coordinates": [-122.514286, 38.347224]}, "properties": {"Occurred": "2/1/2003", "City": "Eldridge", "State": "CA", "Country": "USA", "Shape": "Fireball", "Summary": "Large slow moving ball of fire."}}, {"type": "Feature", "geometry": {"type": "Point", "coordinates": [-90.584604, 41.658047]}, "properties": {"Occurred": "4/12/2023", "City": "Eldridge", "State": "IA", "Country": "USA", "Shape": "Circle", "Summary": "Bright orange/yellow with red trim circular fast moving quiet light."}}, {"type": "Feature", "geometry": {"type": "Point", "coordinates": [-90.584604, 41.658047]}, "properties": {"Occurred": "10/28/2005", "City": "Eldridge", "State": "IA", "Country": "USA", "Shape": "Disk", "Summary": "MISSOURI INVESTIGATORS GROUP Report: I saw a bright circular metal object in the sky which seemed to hover."}}, {"type": "Feature", "geometry": {"type": "Point", "coordinates": [-90.584604, 41.658047]}, "properties": {"Occurred": "10/4/2009", "City": "Eldridge", "State": "IA", "Country": "USA", "Shape": "Light", "Summary": "Bright orange object seen flying E/SE out of atmosphere."}}, {"type": "Feature", "geometry": {"type": "Point", "coordinates": [-90.584604, 41.658047]}, "properties": {"Occurred": "10/4/2009", "City": "Eldridge", "State": "IA", "Country": "USA", "Shape": "Light", "Summary": "Bright orange object seen flying E/SE out of atmosphere."}}, {"type": "Feature", "geometry": {"type": "Point", "coordinates": [-90.584604, 41.658047]}, "properties": {"Occurred": "7/7/2008", "City": "Eldridge", "State": "IA", "Country": "USA", "Shape": "Triangle", "Summary": "Small triangle shaped lights moving through sky."}}, {"type": "Feature", "geometry": {"type": "Point", "coordinates": [-90.584604, 41.658047]}, "properties": {"Occurred": "4/12/1950", "City": "Eldridge", "State": "IA", "Country": "USA", "Shape": "Light", "Summary": "Five orange lights, like stars in the cloudy sky, hovered motionless over a small city in Iowa."}}, {"type": "Feature", "geometry": {"type": "Point", "coordinates": [-81.932358, 38.537589]}, "properties": {"Occurred": "8/15/1999", "City": "Eleanor", "State": "WV", "Country": "USA", "Shape": "Cigar", "Summary": "Driving In Car when it appeared appeared in sky. It was long and silver with a long black line in the middle."}}, {"type": "Feature", "geometry": {"type": "Point", "coordinates": [-98.916369, 34.032086]}, "properties": {"Occurred": "4/23/2015", "City": "Electra", "State": "TX", "Country": "USA", "Shape": "Cigar", "Summary": "I was driving south bound on US 287 on the out side lane. I looked up and saw an object that reminded me of those high end cigar tubes"}}, {"type": "Feature", "geometry": {"type": "Point", "coordinates": [-98.916369, 34.032086]}, "properties": {"Occurred": "7/15/2004", "City": "Electra", "State": "TX", "Country": "USA", "Shape": "Disk", "Summary": "Saw craft with bright clear light illuminating from \"portholes\" hovering over a field near our house"}}, {"type": "Feature", "geometry": {"type": "Point", "coordinates": [-98.916369, 34.032086]}, "properties": {"Occurred": "1/13/2009", "City": "Electra", "State": "TX", "Country": "USA", "Shape": "Oval", "Summary": "Silver oval craft seen near Electra, Texas"}}, {"type": "Feature", "geometry": {"type": "Point", "coordinates": [-119.038078, 47.932374]}, "properties": {"Occurred": "6/16/1970", "City": "Electric City", "State": "WA", "Country": "USA", "Shape": "Egg", "Summary": "Three Egg shaped objects flew thru the Coulee. There was a large one and two small objects flying together.. They all flashed colors of"}}, {"type": "Feature", "geometry": {"type": "Point", "coordinates": [-119.038078, 47.932374]}, "properties": {"Occurred": "4/11/2021", "City": "Electric City", "State": "WA", "Country": "USA", "Shape": "Sphere", "Summary": "Getting Power from the Grand Coulee Dam?"}}, {"type": "Feature", "geometry": {"type": "Point", "coordinates": [-119.038078, 47.932374]}, "properties": {"Occurred": "4/3/1970", "City": "Electric City", "State": "WA", "Country": "USA", "Shape": "Circle", "Summary": "Grand Coulee Damn sighting of \"fireball\" that turned in mid air while changing speeds intermitently."}}, {"type": "Feature", "geometry": {"type": "Point", "coordinates": [-107.224159, 33.197505]}, "properties": {"Occurred": "4/14/2020", "City": "Elephant Butte", "State": "NM", "Country": "USA", "Shape": "Other", "Summary": "A fleet of crafts clearly seen over elephant butte nm golf course bidding in the clouds."}}, {"type": "Feature", "geometry": {"type": "Point", "coordinates": [-91.470158, 44.575797]}, "properties": {"Occurred": "9/8/2009", "City": "Eleva", "State": "WI", "Country": "USA", "Shape": "Light", "Summary": "two synchronized lights moving slowing across the sky in a line formation"}}, {"type": "Feature", "geometry": {"type": "Point", "coordinates": [-109.687014, 31.685371]}, "properties": {"Occurred": "6/10/2019", "City": "Elfrida", "State": "AZ", "Country": "USA", "Shape": "Other", "Summary": "There was a single pyramid like craft with at least one area glowing in a dull red being chased in US airspace by approximately 4 fight"}}, {"type": "Feature", "geometry": {"type": "Point", "coordinates": [-80.794252, 34.170983]}, "properties": {"Occurred": "4/13/1979", "City": "Elgin", "State": "SC", "Country": "USA", "Shape": "Diamond", "Summary": "Large object with one bright white at each corner (square shaped) moving slowly and low over town. ((NUFORC Note: From a/c mech. PD))"}}, {"type": "Feature", "geometry": {"type": "Point", "coordinates": [-88.281099, 42.03726]}, "properties": {"Occurred": "8/22/2006", "City": "Elgin", "State": "IL", "Country": "USA", "Shape": "Light", "Summary": "White lights with blue and red flashing lights around it"}}, {"type": "Feature", "geometry": {"type": "Point", "coordinates": [-97.371118, 30.349508]}, "properties": {"Occurred": "11/3/2005", "City": "Elgin", "State": "TX", "Country": "USA", "Shape": "Light", "Summary": "Bright light in south-west sky from south Elgin. ((NUFORC Note: Possible aircraft w/ landing light, or a star? PD))"}}, {"type": "Feature", "geometry": {"type": "Point", "coordinates": [-80.794252, 34.170983]}, "properties": {"Occurred": "5/2/2018", "City": "Elgin", "State": "SC", "Country": "USA", "Shape": "Light", "Summary": "Light as bright as star moving east. constant speed. would stop for about 10 seconds then continue on. would fade completely out then b"}}, {"type": "Feature", "geometry": {"type": "Point", "coordinates": [-88.281099, 42.03726]}, "properties": {"Occurred": "10/1/1998", "City": "Elgin", "State": "IL", "Country": "USA", "Shape": "Disk", "Summary": "I can only say that I know what I saw, I even took a digital picture of it. 1:30 in the afternoon, clear blue sky, an airplane head"}}, {"type": "Feature", "geometry": {"type": "Point", "coordinates": [-88.281099, 42.03726]}, "properties": {"Occurred": "11/5/2001", "City": "Elgin", "State": "IL", "Country": "USA", "Shape": "Fireball", "Summary": "Neon Green Light Spoted in Elgin, IL. 60120 at 21:04 hours Monday, November 5th 2001"}}, {"type": "Feature", "geometry": {"type": "Point", "coordinates": [-88.281099, 42.03726]}, "properties": {"Occurred": "9/25/2006", "City": "Elgin", "State": "IL", "Country": "USA", "Shape": "Rectangle", "Summary": "3 lights flew silently over Elgin Illinois at 22:15"}}, {"type": "Feature", "geometry": {"type": "Point", "coordinates": [-88.281099, 42.03726]}, "properties": {"Occurred": "3/8/2006", "City": "Elgin", "State": "IL", "Country": "USA", "Shape": "Fireball", "Summary": "orange fireball ball in east sky glowed for 2-3 minutes at about 4:17-4:20"}}, {"type": "Feature", "geometry": {"type": "Point", "coordinates": [-88.281099, 42.03726]}, "properties": {"Occurred": "4/7/2028", "City": "Elgin", "State": "IL", "Country": "USA", "Shape": "Fireball", "Summary": "Fireball in sky separating into two!"}}, {"type": "Feature", "geometry": {"type": "Point", "coordinates": [-88.281099, 42.03726]}, "properties": {"Occurred": "9/1/2018", "City": "Elgin", "State": "IL", "Country": "USA", "Shape": "Orb", "Summary": "Saw a black stationary orb in the sky in Elgin. ((anonymous report))"}}, {"type": "Feature", "geometry": {"type": "Point", "coordinates": [-97.371118, 30.349508]}, "properties": {"Occurred": "2/23/2023", "City": "Elgin", "State": "TX", "Country": "USA", "Shape": "Light", "Summary": "Light in the sky that I thought was a star at first but knew it was out of place."}}, {"type": "Feature", "geometry": {"type": "Point", "coordinates": [-97.371118, 30.349508]}, "properties": {"Occurred": "9/16/1999", "City": "Elgin", "State": "TX", "Country": "USA", "Shape": "Disk", "Summary": "A ROUND DISK TYPE OBJECT, WHITE(LIGHT) IN COLOR WITH WHITE & ORANGE LIGHTS SURRONDING PERIMETER ABOUT 100 METERS ABOVE AND HOVERING."}}, {"type": "Feature", "geometry": {"type": "Point", "coordinates": [-98.30643, 34.775468]}, "properties": {"Occurred": "7/30/2020", "City": "Elgin", "State": "OK", "Country": "USA", "Shape": "Cylinder", "Summary": "UFO near Elgin, Oklahoma"}}, {"type": "Feature", "geometry": {"type": "Point", "coordinates": [-88.281099, 42.03726]}, "properties": {"Occurred": "4/3/1961", "City": "Elgin", "State": "IL", "Country": "USA", "Shape": "Sphere", "Summary": "10 bright orange noiseless spheres flew over head in single file at intrevals of 10 to 15 seconds moving from S to N."}}, {"type": "Feature", "geometry": {"type": "Point", "coordinates": [-88.281099, 42.03726]}, "properties": {"Occurred": "4/8/1948", "City": "Elgin", "State": "IL", "Country": "USA", "Shape": "Light", "Summary": "bright white ball of light moving fast and smooth and silent"}}, {"type": "Feature", "geometry": {"type": "Point", "coordinates": [-88.281099, 42.03726]}, "properties": {"Occurred": "4/17/1990", "City": "Elgin", "State": "IL", "Country": "USA", "Shape": "Fireball", "Summary": "Saw 2 fireball shapes flying side by side."}}, {"type": "Feature", "geometry": {"type": "Point", "coordinates": [-91.629763, 42.957484]}, "properties": {"Occurred": "4/27/2009", "City": "Elgin", "State": "IA", "Country": "USA", "Shape": "Light", "Summary": "Multiple red lights/balls taking off from ground in Iowa. ((anonymous report))"}}, {"type": "Feature", "geometry": {"type": "Point", "coordinates": [-88.281099, 42.03726]}, "properties": {"Occurred": "12/3/2021", "City": "Elgin", "State": "IL", "Country": "USA", "Shape": "Cylinder", "Summary": "Long cylinder flying high in the sky no noice or lights."}}, {"type": "Feature", "geometry": {"type": "Point", "coordinates": [-88.281099, 42.03726]}, "properties": {"Occurred": "5/27/2023", "City": "Elgin", "State": "IL", "Country": "USA", "Shape": "Other", "Summary": "A bright circle of light"}}, {"type": "Feature", "geometry": {"type": "Point", "coordinates": [-88.281099, 42.03726]}, "properties": {"Occurred": "4/3/2029", "City": "Elgin", "State": "IL", "Country": "USA", "Shape": "Orb", "Summary": "Firey orange orb seen in sky over Elgin, Illinois"}}, {"type": "Feature", "geometry": {"type": "Point", "coordinates": [-88.281099, 42.03726]}, "properties": {"Occurred": "4/13/1963", "City": "Elgin", "State": "IL", "Country": "USA", "Shape": "Orb", "Summary": "Silent reddish orange fire like spheres/orbs ( 5 ) following the direction of the wind blowing 1-2 k feet high"}}, {"type": "Feature", "geometry": {"type": "Point", "coordinates": [-88.281099, 42.03726]}, "properties": {"Occurred": "4/24/1966", "City": "Elgin", "State": "IL", "Country": "USA", "Shape": "Triangle", "Summary": "Triangle of lights in the sky to the south."}}, {"type": "Feature", "geometry": {"type": "Point", "coordinates": [-117.917571, 45.564989]}, "properties": {"Occurred": "10/10/1999", "City": "Elgin", "State": "OR", "Country": "USA", "Shape": "Chevron", "Summary": "Object silently traveled north -northwest. It was V shaped with five orange lights on the perimeter and one white ligh in the center of"}}, {"type": "Feature", "geometry": {"type": "Point", "coordinates": [-88.281099, 42.03726]}, "properties": {"Occurred": "4/5/2020", "City": "Elgin", "State": "IL", "Country": "USA", "Shape": "Changing", "Summary": "We seen around 15 lights flying in The sky Triangle Circle and Line of lights in the sky from east side to the west"}}, {"type": "Feature", "geometry": {"type": "Point", "coordinates": [-88.281099, 42.03726]}, "properties": {"Occurred": "4/3/2029", "City": "Elgin", "State": "IL", "Country": "USA", "Shape": "Fireball", "Summary": "Twinkling, firely light surrounded by or in front a red circular shape moved across the sky before hovering and dissappearing."}}, {"type": "Feature", "geometry": {"type": "Point", "coordinates": [-98.30643, 34.775468]}, "properties": {"Occurred": "2/26/2019", "City": "Elgin", "State": "OK", "Country": "USA", "Shape": "Disk", "Summary": "Driving on the highway right before Elgin exit going towards OKC. On the right the sky lit up with a bright yellow/orange."}}, {"type": "Feature", "geometry": {"type": "Point", "coordinates": [-80.794252, 34.170983]}, "properties": {"Occurred": "4/9/2008", "City": "Elgin", "State": "SC", "Country": "USA", "Shape": "Light", "Summary": "Bright orange light moving slowly across sky in SC."}}, {"type": "Feature", "geometry": {"type": "Point", "coordinates": [-80.794252, 34.170983]}, "properties": {"Occurred": "6/13/2003", "City": "Elgin", "State": "SC", "Country": "USA", "Shape": "Formation", "Summary": "i was outside and all the sudden i saw a flash of light and 13 ufos appered just like that. then they moved very fast across the night"}}, {"type": "Feature", "geometry": {"type": "Point", "coordinates": [-98.30643, 34.775468]}, "properties": {"Occurred": "2/7/2020", "City": "Elgin", "State": "OK", "Country": "USA", "Shape": "Cigar", "Summary": "White cigar shaped ufo over Elgin"}}, {"type": "Feature", "geometry": {"type": "Point", "coordinates": [-88.281099, 42.03726]}, "properties": {"Occurred": "7/10/2019", "City": "Elgin", "State": "IL", "Country": "USA", "Shape": "Formation", "Summary": "A few orange orbs appeared to make a formation along with another group, totaling around 10 orbs."}}, {"type": "Feature", "geometry": {"type": "Point", "coordinates": [-88.281099, 42.03726]}, "properties": {"Occurred": "8/12/2023", "City": "Elgin", "State": "IL", "Country": "USA", "Shape": "Star", "Summary": "I've seen this phenomena multiple times over the past few weeks, hovering and sometimes making quick movements in the sky."}}, {"type": "Feature", "geometry": {"type": "Point", "coordinates": [-88.281099, 42.03726]}, "properties": {"Occurred": "7/4/2008", "City": "Elgin", "State": "IL", "Country": "USA", "Shape": "Disk", "Summary": "Four orange/reddish objects seen and video taped"}}, {"type": "Feature", "geometry": {"type": "Point", "coordinates": [-88.281099, 42.03726]}, "properties": {"Occurred": "11/16/1999", "City": "Elgin", "State": "IL", "Country": "USA", "Shape": "Fireball", "Summary": "Ok, I was pulling out of the bank parking lot with a friend, and when I was pulling out, in the sky i saw the object falling towards th"}}, {"type": "Feature", "geometry": {"type": "Point", "coordinates": [-88.281099, 42.03726]}, "properties": {"Occurred": "4/26/2017", "City": "Elgin", "State": "IL", "Country": "USA", "Shape": "Fireball", "Summary": "9:00pm CST, 9/4/16, fireball-like objects observed over Elgin, IL."}}, {"type": "Feature", "geometry": {"type": "Point", "coordinates": [-88.281099, 42.03726]}, "properties": {"Occurred": "10/10/1998", "City": "Elgin", "State": "IL", "Country": "USA", "Shape": "Cylinder", "Summary": "While looking up at sky I noticed a bright light hovering above the sky. then I noticed a jet airliner traveling in the same area and I"}}, {"type": "Feature", "geometry": {"type": "Point", "coordinates": [-88.281099, 42.03726]}, "properties": {"Occurred": "3/1/2021", "City": "Elgin", "State": "IL", "Country": "USA", "Shape": "Circle", "Summary": "A circular object with alternating flashing lights"}}, {"type": "Feature", "geometry": {"type": "Point", "coordinates": [-88.281099, 42.03726]}, "properties": {"Occurred": "4/13/2000", "City": "Elgin", "State": "IL", "Country": "USA", "Shape": "Changing", "Summary": "At 8:00pm a cluster of orange lights appeared to be headed eastward to the northwest of Elgin."}}, {"type": "Feature", "geometry": {"type": "Point", "coordinates": [-88.281099, 42.03726]}, "properties": {"Occurred": "11/16/2021", "City": "Elgin", "State": "IL", "Country": "USA", "Shape": "Orb", "Summary": "2 stationary orange orbs, different heights, suddenly vanished"}}, {"type": "Feature", "geometry": {"type": "Point", "coordinates": [-88.281099, 42.03726]}, "properties": {"Occurred": "4/13/1963", "City": "Elgin", "State": "IL", "Country": "USA", "Shape": "Orb", "Summary": "Silent redish orange fire like spheres/ orbs ( 5 ) following the direction of the wind blowing 1-2 k feet high"}}, {"type": "Feature", "geometry": {"type": "Point", "coordinates": [-97.371118, 30.349508]}, "properties": {"Occurred": "5/11/2006", "City": "Elgin", "State": "TX", "Country": "USA", "Shape": "Circle", "Summary": "very bright object over Elgin Texas"}}, {"type": "Feature", "geometry": {"type": "Point", "coordinates": [-88.281099, 42.03726]}, "properties": {"Occurred": "4/16/1933", "City": "Elgin", "State": "IL", "Country": "USA", "Shape": "Cylinder", "Summary": "A cylinder shaped object with a reddish glow and yellow fireball clusters moves slowly across the sky."}}, {"type": "Feature", "geometry": {"type": "Point", "coordinates": [-98.765341, 32.95984]}, "properties": {"Occurred": "12/30/2021", "City": "Eliasville", "State": "TX", "Country": "USA", "Shape": "Orb", "Summary": "Round, glowing, key lime green orb flew from southern sky to northern sky."}}, {"type": "Feature", "geometry": {"type": "Point", "coordinates": [-84.203839, 40.788662]}, "properties": {"Occurred": "6/25/2023", "City": "Elida", "State": "OH", "Country": "USA", "Shape": "Oval", "Summary": "From the naked eye, object 1 and 2 appeared like a tic tac round shape."}}, {"type": "Feature", "geometry": {"type": "Point", "coordinates": [-70.800056, 43.153142]}, "properties": {"Occurred": "4/23/1974", "City": "Eliot", "State": "ME", "Country": "USA", "Shape": "Circle", "Summary": "Red light dropped straight in from sky to near horizon, and rapidly changed direction to south east - viewed from central Eliot."}}, {"type": "Feature", "geometry": {"type": "Point", "coordinates": [-70.800056, 43.153142]}, "properties": {"Occurred": "4/30/2015", "City": "Eliot", "State": "ME", "Country": "USA", "Shape": "Light", "Summary": "Bright yellow and red flashing light anomaly just above tree level. Steady movements at times, speeds up. ((anonymous report))"}}, {"type": "Feature", "geometry": {"type": "Point", "coordinates": [-70.800056, 43.153142]}, "properties": {"Occurred": "4/12/1930", "City": "Eliot", "State": "ME", "Country": "USA", "Shape": "Orb", "Summary": "Tannish orb in orange sky turned black then disappeared."}}, {"type": "Feature", "geometry": {"type": "Point", "coordinates": [-81.395272, 39.063375]}, "properties": {"Occurred": "1/20/2007", "City": "Elizabeth", "State": "WV", "Country": "USA", "Shape": "Circle", "Summary": "My friend and i where in a car at 1:30 and a bright white flashing light."}}, {"type": "Feature", "geometry": {"type": "Point", "coordinates": [-104.59687, 39.360286]}, "properties": {"Occurred": "5/1/2001", "City": "Elizabeth", "State": "CO", "Country": "USA", "Shape": "Sphere", "Summary": "I was driving home from work at approx. 11:00 pm, I saw a round ball of bright light in the sky. At first I thought that it may have"}}, {"type": "Feature", "geometry": {"type": "Point", "coordinates": [-81.395272, 39.063375]}, "properties": {"Occurred": "4/29/1978", "City": "Elizabeth", "State": "WV", "Country": "USA", "Shape": "Light", "Summary": "((HOAX??)) Looked like a star that moved across the sky and flashed a white light and was gone."}}, {"type": "Feature", "geometry": {"type": "Point", "coordinates": [-74.210701, 40.663992]}, "properties": {"Occurred": "10/19/2005", "City": "Elizabeth", "State": "NJ", "Country": "USA", "Shape": "Light", "Summary": "light in the sky of elizabeth"}}, {"type": "Feature", "geometry": {"type": "Point", "coordinates": [-85.974132, 38.121182]}, "properties": {"Occurred": "4/17/2000", "City": "Elizabeth", "State": "IN", "Country": "USA", "Shape": "Triangle", "Summary": "5 aircraft flying low at slow speed appear to be flying in line, white and red lights, witnessed by two people"}}, {"type": "Feature", "geometry": {"type": "Point", "coordinates": [-74.210701, 40.663992]}, "properties": {"Occurred": "8/9/2008", "City": "Elizabeth", "State": "NJ", "Country": "USA", "Shape": "Disk", "Summary": "I saw a huge disk w/ 2 big lights and several smaller lights around it."}}, {"type": "Feature", "geometry": {"type": "Point", "coordinates": [-85.974132, 38.121182]}, "properties": {"Occurred": "3/22/2019", "City": "Elizabeth", "State": "IN", "Country": "USA", "Shape": "Oval", "Summary": "while taking pics of strange color in clouds captured what looks to be a ufo"}}, {"type": "Feature", "geometry": {"type": "Point", "coordinates": [-74.210701, 40.663992]}, "properties": {"Occurred": "9/17/1994", "City": "Elizabeth", "State": "NJ", "Country": "USA", "Shape": "Disk", "Summary": "i could not identify this object with any known craft although i has study janes and nasa craft for years!"}}, {"type": "Feature", "geometry": {"type": "Point", "coordinates": [-104.59687, 39.360286]}, "properties": {"Occurred": "4/23/1942", "City": "Elizabeth", "State": "CO", "Country": "USA", "Shape": "Light", "Summary": "I sent my nephew to get my laptop from my car and when he came back in he said, \"Oh, by the way, what are those lights out there?\""}}, {"type": "Feature", "geometry": {"type": "Point", "coordinates": [-81.395272, 39.063375]}, "properties": {"Occurred": "4/18/2029", "City": "Elizabeth", "State": "WV", "Country": "USA", "Shape": "Light", "Summary": "Bright light shooting across the sky."}}, {"type": "Feature", "geometry": {"type": "Point", "coordinates": [-74.210701, 40.663992]}, "properties": {"Occurred": "2/24/2008", "City": "Elizabeth", "State": "NJ", "Country": "USA", "Shape": "Orb", "Summary": "3 white orbs moving together against clear blue sky"}}, {"type": "Feature", "geometry": {"type": "Point", "coordinates": [-74.210701, 40.663992]}, "properties": {"Occurred": "11/25/2000", "City": "Elizabeth", "State": "NJ", "Country": "USA", "Shape": "Sphere", "Summary": "Wish to see more of those things!!! (UFO's)..."}}, {"type": "Feature", "geometry": {"type": "Point", "coordinates": [-74.210701, 40.663992]}, "properties": {"Occurred": "2/1/1997", "City": "Elizabeth", "State": "NJ", "Country": "USA", "Shape": "Sphere", "Summary": "Spheres in New Jersey"}}, {"type": "Feature", "geometry": {"type": "Point", "coordinates": [-74.210701, 40.663992]}, "properties": {"Occurred": "4/11/2029", "City": "Elizabeth", "State": "NJ", "Country": "USA", "Shape": "Disk", "Summary": "It was a sauser shape object which was flying over Elizabeth very slowly and made no noise whatsoever it was very low and it had many m"}}, {"type": "Feature", "geometry": {"type": "Point", "coordinates": [-74.210701, 40.663992]}, "properties": {"Occurred": "1/3/2024", "City": "Elizabeth", "State": "NJ", "Country": "USA", "Shape": "Orb", "Summary": "Witnessed when looking outside from room"}}, {"type": "Feature", "geometry": {"type": "Point", "coordinates": [-74.210701, 40.663992]}, "properties": {"Occurred": "4/23/1960", "City": "Elizabeth", "State": "NJ", "Country": "USA", "Shape": "Diamond", "Summary": "Shot photo of 4 diamond shape objects in hte sky."}}, {"type": "Feature", "geometry": {"type": "Point", "coordinates": [-79.889771, 40.269237]}, "properties": {"Occurred": "10/15/2003", "City": "Elizabeth", "State": "PA", "Country": "USA", "Shape": "Disk", "Summary": "saucer shape seen from bottom with triangular lights with point in center, grey in shape.300' up."}}, {"type": "Feature", "geometry": {"type": "Point", "coordinates": [-104.59687, 39.360286]}, "properties": {"Occurred": "10/4/2002", "City": "Elizabeth", "State": "CO", "Country": "USA", "Shape": "Flash", "Summary": "3 extremely bright metallic strobe- like flashing objects with a spot light effect on the ground and objects below and a \"grounded\" so"}}, {"type": "Feature", "geometry": {"type": "Point", "coordinates": [-79.889771, 40.269237]}, "properties": {"Occurred": "6/23/2019", "City": "Elizabeth", "State": "PA", "Country": "USA", "Shape": "Sphere", "Summary": "5 amber circular shapes going in all directions then formed a arrowhead shape then broke up and left."}}, {"type": "Feature", "geometry": {"type": "Point", "coordinates": [-74.210701, 40.663992]}, "properties": {"Occurred": "4/2/2006", "City": "Elizabeth", "State": "NJ", "Country": "USA", "Shape": "Orb", "Summary": "orange spheroid seen flying over elizabeth NJ floating north to south & vanishing after approx 12 minutes"}}, {"type": "Feature", "geometry": {"type": "Point", "coordinates": [-74.210701, 40.663992]}, "properties": {"Occurred": "9/5/2020", "City": "Elizabeth", "State": "NJ", "Country": "USA", "Shape": "Disk", "Summary": "Observed a black disc shaped object moving slowly and occasionally emitting a sparkling light."}}, {"type": "Feature", "geometry": {"type": "Point", "coordinates": [-74.210701, 40.663992]}, "properties": {"Occurred": "4/10/1999", "City": "Elizabeth", "State": "NJ", "Country": "USA", "Shape": "Other", "Summary": "Hovering air craft not making a noise over jersey tpk"}}, {"type": "Feature", "geometry": {"type": "Point", "coordinates": [-74.210701, 40.663992]}, "properties": {"Occurred": "9/19/2008", "City": "Elizabeth", "State": "NJ", "Country": "USA", "Shape": "Disk", "Summary": "U.F.O Spotted by teen, At night (21:03) Giving out 5 colors or more of light"}}, {"type": "Feature", "geometry": {"type": "Point", "coordinates": [-79.889771, 40.269237]}, "properties": {"Occurred": "4/23/1930", "City": "Elizabeth", "State": "PA", "Country": "USA", "Shape": "Other", "Summary": "Bright green star, falling fast from the sky to earth"}}, {"type": "Feature", "geometry": {"type": "Point", "coordinates": [-74.210701, 40.663992]}, "properties": {"Occurred": "11/9/1995", "City": "Elizabeth", "State": "NJ", "Country": "USA", "Shape": "Oval", "Summary": "While driving on Route 1&9 in Elizabeth Near Newark Airport I was looking at an airplane that was taking off on an upward incline. At t"}}, {"type": "Feature", "geometry": {"type": "Point", "coordinates": [-79.889771, 40.269237]}, "properties": {"Occurred": "7/25/2008", "City": "Elizabeth", "State": "PA", "Country": "USA", "Shape": "Other", "Summary": "Dark shiny disk that appeared to be on fire"}}, {"type": "Feature", "geometry": {"type": "Point", "coordinates": [-79.889771, 40.269237]}, "properties": {"Occurred": "4/7/1933", "City": "Elizabeth", "State": "PA", "Country": "USA", "Shape": "Circle", "Summary": "Round black object on fire at first - traveling across sky . NO lights!"}}, {"type": "Feature", "geometry": {"type": "Point", "coordinates": [-74.210701, 40.663992]}, "properties": {"Occurred": "3/16/1966", "City": "Elizabeth", "State": "NJ", "Country": "USA", "Shape": "Chevron", "Summary": "Silvery chevron moves across the sky and fades out of sight"}}, {"type": "Feature", "geometry": {"type": "Point", "coordinates": [-104.59687, 39.360286]}, "properties": {"Occurred": "12/7/2019", "City": "Elizabeth", "State": "CO", "Country": "USA", "Shape": "Disk", "Summary": "Enormous disc moving westward near Elizabeth, CO"}}, {"type": "Feature", "geometry": {"type": "Point", "coordinates": [-74.210701, 40.663992]}, "properties": {"Occurred": "12/12/1996", "City": "Elizabeth", "State": "NJ", "Country": "USA", "Shape": "Changing", "Summary": "There are many sighting i have seen in my lifetime, there are even some that i have heard from my neibors out of the united states."}}, {"type": "Feature", "geometry": {"type": "Point", "coordinates": [-74.210701, 40.663992]}, "properties": {"Occurred": "8/19/2019", "City": "Elizabeth", "State": "NJ", "Country": "USA", "Shape": "Light", "Summary": "My husband and I when out to the parking lot and we saw a steady red bright light at the sky over the Elizabeth river parkway for about"}}, {"type": "Feature", "geometry": {"type": "Point", "coordinates": [-76.22037, 36.301019]}, "properties": {"Occurred": "4/10/1994", "City": "Elizabeth City", "State": "NC", "Country": "USA", "Shape": "Disk", "Summary": "Light-colored disc-shaped object enveleloped by reddish glow hovers slowly over houses then disappears"}}, {"type": "Feature", "geometry": {"type": "Point", "coordinates": [-76.22037, 36.301019]}, "properties": {"Occurred": "4/14/1954", "City": "Elizabeth City", "State": "NC", "Country": "USA", "Shape": "Other", "Summary": "Red glow observed during storm, Locating of glow lines up to Harvey Point."}}, {"type": "Feature", "geometry": {"type": "Point", "coordinates": [-76.22037, 36.301019]}, "properties": {"Occurred": "4/23/1957", "City": "Elizabeth City", "State": "NC", "Country": "USA", "Shape": "Fireball", "Summary": "Multiple flying objects sighted on the horizon."}}, {"type": "Feature", "geometry": {"type": "Point", "coordinates": [-76.22037, 36.301019]}, "properties": {"Occurred": "4/11/1963", "City": "Elizabeth City", "State": "NC", "Country": "USA", "Shape": "Light", "Summary": "Saw a cluster of red lights moving at a high rate of speed with no sound over my neighborhood. Followed the lights for several minutes"}}, {"type": "Feature", "geometry": {"type": "Point", "coordinates": [-76.22037, 36.301019]}, "properties": {"Occurred": "1/15/2005", "City": "Elizabeth City", "State": "NC", "Country": "USA", "Shape": "Other", "Summary": "Explosive corona.....Shooting Star becomes disk that hovers"}}, {"type": "Feature", "geometry": {"type": "Point", "coordinates": [-76.22037, 36.301019]}, "properties": {"Occurred": "12/20/2000", "City": "Elizabeth City", "State": "NC", "Country": "USA", "Shape": "Chevron", "Summary": "Chevron shaped object, alternating dark/white pattern, 10 sec duration, moderate speed, disappeared."}}, {"type": "Feature", "geometry": {"type": "Point", "coordinates": [-76.22037, 36.301019]}, "properties": {"Occurred": "1/24/2023", "City": "Elizabeth City", "State": "NC", "Country": "USA", "Shape": "Formation", "Summary": "My family and I were outside playing when my wife noticed the objects flying in formation she tried to record but couldn't so I did"}}, {"type": "Feature", "geometry": {"type": "Point", "coordinates": [-76.22037, 36.301019]}, "properties": {"Occurred": "4/9/2011", "City": "Elizabeth City", "State": "NC", "Country": "USA", "Shape": "Triangle", "Summary": "Out for a smoke, noticed the triangluar shaped craft about a mile up in sky that made sudden turns and reversed unlike any aircraft ."}}, {"type": "Feature", "geometry": {"type": "Point", "coordinates": [-76.22037, 36.301019]}, "properties": {"Occurred": "4/25/1995", "City": "Elizabeth City", "State": "NC", "Country": "USA", "Shape": "Disk", "Summary": "Saucer-shaped chrome vessel, hovering near wind turbines in Elizabeth City, NC."}}, {"type": "Feature", "geometry": {"type": "Point", "coordinates": [-79.83326, 40.264341]}, "properties": {"Occurred": "3/5/1990", "City": "Elizabeth Township", "State": "PA", "Country": "USA", "Shape": "Oval", "Summary": "My friend and I saw eight oval crafts with lights performing very unusal manuvers"}}, {"type": "Feature", "geometry": {"type": "Point", "coordinates": [-79.83326, 40.264341]}, "properties": {"Occurred": "4/9/1949", "City": "Elizabeth Township", "State": "PA", "Country": "USA", "Shape": "Triangle", "Summary": "Small battleship gray triangle in residential area"}}, {"type": "Feature", "geometry": {"type": "Point", "coordinates": [-82.210762, 36.348776]}, "properties": {"Occurred": "11/9/2004", "City": "Elizabethton", "State": "TN", "Country": "USA", "Shape": "Disk", "Summary": "Several craft at one time"}}, {"type": "Feature", "geometry": {"type": "Point", "coordinates": [-82.210762, 36.348776]}, "properties": {"Occurred": "4/21/2016", "City": "Elizabethton", "State": "TN", "Country": "USA", "Shape": "Cylinder", "Summary": "Black cylinder craft slowly passes over head. At least the size of football field."}}, {"type": "Feature", "geometry": {"type": "Point", "coordinates": [-82.210762, 36.348776]}, "properties": {"Occurred": "4/25/1998", "City": "Elizabethton", "State": "TN", "Country": "USA", "Shape": "Circle", "Summary": "I seen a round ball of orange light that shot up from the mountains up into the dark clouds then disappear. ((anonymous report))"}}, {"type": "Feature", "geometry": {"type": "Point", "coordinates": [-82.210762, 36.348776]}, "properties": {"Occurred": "11/3/2004", "City": "Elizabethton", "State": "TN", "Country": "USA", "Shape": "Light", "Summary": "large bright white light"}}, {"type": "Feature", "geometry": {"type": "Point", "coordinates": [-82.210762, 36.348776]}, "properties": {"Occurred": "7/9/2004", "City": "Elizabethton", "State": "TN", "Country": "USA", "Shape": "Circle", "Summary": "shinny circle that disapeared"}}, {"type": "Feature", "geometry": {"type": "Point", "coordinates": [-82.210762, 36.348776]}, "properties": {"Occurred": "4/7/2018", "City": "Elizabethton", "State": "TN", "Country": "USA", "Shape": "Light", "Summary": "12- 15 orange colored lights moving across the sky,in elizabethton, tn, numerous unrelated witnessess"}}, {"type": "Feature", "geometry": {"type": "Point", "coordinates": [-82.210762, 36.348776]}, "properties": {"Occurred": "4/30/2005", "City": "Elizabethton", "State": "TN", "Country": "USA", "Shape": "Light", "Summary": "Seen multiple lights, most to the north/northeast above the tree/mountain lines. I saw one split and multiple moving around. I'm orderi"}}, {"type": "Feature", "geometry": {"type": "Point", "coordinates": [-82.210762, 36.348776]}, "properties": {"Occurred": "4/21/2016", "City": "Elizabethton", "State": "TN", "Country": "USA", "Shape": "Cylinder", "Summary": "Black cylinder craft slowly passes over head/at least the size of football field"}}, {"type": "Feature", "geometry": {"type": "Point", "coordinates": [-82.210762, 36.348776]}, "properties": {"Occurred": "3/5/2004", "City": "Elizabethton", "State": "TN", "Country": "USA", "Shape": "Light", "Summary": "My daughter and granddaughter were were letting me out of the car in my driveway. As I got out I glanced at the mountain about 3/4 mil"}}, {"type": "Feature", "geometry": {"type": "Point", "coordinates": [-82.210762, 36.348776]}, "properties": {"Occurred": "4/26/1991", "City": "Elizabethton", "State": "TN", "Country": "USA", "Shape": "Circle", "Summary": "Cluster of lights probably thousands it started very low directly above street lights and floated up up into the sky until we couldn't"}}, {"type": "Feature", "geometry": {"type": "Point", "coordinates": [-82.210762, 36.348776]}, "properties": {"Occurred": "4/30/2004", "City": "Elizabethton", "State": "TN", "Country": "USA", "Shape": "Light", "Summary": "Very bright and large orange star-like object moving at a steady pace NE bound."}}, {"type": "Feature", "geometry": {"type": "Point", "coordinates": [-82.210762, 36.348776]}, "properties": {"Occurred": "9/26/2007", "City": "Elizabethton", "State": "TN", "Country": "USA", "Shape": "Triangle", "Summary": "9-26-07 @ 06:00am a triangle shape object with lite orange lights all around it . stay about 50 seconds,and left. Silent."}}, {"type": "Feature", "geometry": {"type": "Point", "coordinates": [-82.210762, 36.348776]}, "properties": {"Occurred": "10/14/2020", "City": "Elizabethton", "State": "TN", "Country": "USA", "Shape": "Fireball", "Summary": "Appeared to be fireballs with a dissipating trail falling toward earth at dusk. Two in number. October 14, 2020, 6:47 PM, Elizabethton"}}, {"type": "Feature", "geometry": {"type": "Point", "coordinates": [-76.60245, 40.153022]}, "properties": {"Occurred": "4/6/1982", "City": "Elizabethtown", "State": "PA", "Country": "USA", "Shape": "Oval", "Summary": "Bright Oval Dissolved/Flickered in night sky"}}, {"type": "Feature", "geometry": {"type": "Point", "coordinates": [-85.867893, 37.700408]}, "properties": {"Occurred": "4/18/1986", "City": "Elizabethtown", "State": "KY", "Country": "USA", "Shape": "Circle", "Summary": "Flickering objects in stationary formation."}}, {"type": "Feature", "geometry": {"type": "Point", "coordinates": [-88.305099, 37.445911]}, "properties": {"Occurred": "1/1/1998", "City": "Elizabethtown", "State": "IL", "Country": "USA", "Shape": "Triangle", "Summary": "Triangular object traveling south crossed the highway in front of us hovered then turned east and left with no sound."}}, {"type": "Feature", "geometry": {"type": "Point", "coordinates": [-76.60245, 40.153022]}, "properties": {"Occurred": "4/20/2019", "City": "Elizabethtown", "State": "PA", "Country": "USA", "Shape": "Changing", "Summary": "4 bright white lights seen in a line formation, object (lights) went from horizontal orientation to completely perpendicular formation."}}, {"type": "Feature", "geometry": {"type": "Point", "coordinates": [-85.867893, 37.700408]}, "properties": {"Occurred": "9/3/2006", "City": "Elizabethtown", "State": "KY", "Country": "USA", "Shape": "Disk", "Summary": "Several lights appear over Elizabethtown, KY."}}, {"type": "Feature", "geometry": {"type": "Point", "coordinates": [-85.867893, 37.700408]}, "properties": {"Occurred": "4/15/2005", "City": "Elizabethtown", "State": "KY", "Country": "USA", "Shape": "Circle", "Summary": "4-15-05 small star-like object (not jet/plane/satellite) seen Elizabethtown, Ky. in daylight around 3:15pm which made a 45 degree turn"}}, {"type": "Feature", "geometry": {"type": "Point", "coordinates": [-76.60245, 40.153022]}, "properties": {"Occurred": "4/19/2001", "City": "Elizabethtown", "State": "PA", "Country": "USA", "Shape": "Fireball", "Summary": "2 red fireball objects rose into air close to Elizabethtown college campus and hovered for approximately 20 seconds until they moved in"}}, {"type": "Feature", "geometry": {"type": "Point", "coordinates": [-76.60245, 40.153022]}, "properties": {"Occurred": "6/22/2022", "City": "Elizabethtown", "State": "PA", "Country": "USA", "Shape": "Sphere", "Summary": "I have images and videos of it pulsating at me and I think I got the first legit outline of the ship"}}, {"type": "Feature", "geometry": {"type": "Point", "coordinates": [-76.60245, 40.153022]}, "properties": {"Occurred": "12/10/2021", "City": "Elizabethtown", "State": "PA", "Country": "USA", "Shape": "Sphere", "Summary": "We all noticed the red orb-shaped object move at about 250 mph. Speed is figured at faster than landing speed for HIA."}}, {"type": "Feature", "geometry": {"type": "Point", "coordinates": [-78.60529, 34.629337]}, "properties": {"Occurred": "1/1/1996", "City": "Elizabethtown", "State": "NC", "Country": "USA", "Shape": "Triangle", "Summary": "TRIANGLE SHAPED SHADOW BLOCKS OUT STARS"}}, {"type": "Feature", "geometry": {"type": "Point", "coordinates": [-85.867893, 37.700408]}, "properties": {"Occurred": "4/1/2000", "City": "Elizabethtown", "State": "KY", "Country": "USA", "Shape": "Disk", "Summary": "Silver disk shaped object"}}, {"type": "Feature", "geometry": {"type": "Point", "coordinates": [-76.60245, 40.153022]}, "properties": {"Occurred": "4/26/1964", "City": "Elizabethtown", "State": "PA", "Country": "USA", "Shape": "Triangle", "Summary": "V-shaped, fast moving set of lights above the clouds."}}, {"type": "Feature", "geometry": {"type": "Point", "coordinates": [-85.867893, 37.700408]}, "properties": {"Occurred": "5/22/2018", "City": "Elizabethtown", "State": "KY", "Country": "USA", "Shape": "Flash", "Summary": "While traveling northbound on I65 today heading toward Louisville, I saw a bright light flashes. The light resembled a star."}}, {"type": "Feature", "geometry": {"type": "Point", "coordinates": [-85.867893, 37.700408]}, "properties": {"Occurred": "7/11/2008", "City": "Elizabethtown", "State": "KY", "Country": "USA", "Shape": "Triangle", "Summary": "Large Triangle craft, white lights on all 3 corners, 1 red light and 1 white light on each side if the craft. No Noise. All 4 witnesse"}}, {"type": "Feature", "geometry": {"type": "Point", "coordinates": [-85.867893, 37.700408]}, "properties": {"Occurred": "11/22/2006", "City": "Elizabethtown", "State": "KY", "Country": "USA", "Shape": "Disk", "Summary": "UFO's over Kentucky Seen EVERY clear night, all night between 1 and 7 at a time."}}, {"type": "Feature", "geometry": {"type": "Point", "coordinates": [-85.867893, 37.700408]}, "properties": {"Occurred": "11/1/2023", "City": "Elizabethtown", "State": "KY", "Country": "USA", "Shape": "Orb", "Summary": "Late at night, was flashed through window"}}, {"type": "Feature", "geometry": {"type": "Point", "coordinates": [-76.60245, 40.153022]}, "properties": {"Occurred": "7/2/2023", "City": "Elizabethtown", "State": "PA", "Country": "USA", "Shape": "Light", "Summary": "A short creature with big black shiny eyes ran from my shed back behind my car and then green lights flashed and it was gone."}}, {"type": "Feature", "geometry": {"type": "Point", "coordinates": [-85.867893, 37.700408]}, "properties": {"Occurred": "4/18/1958", "City": "Elizabethtown", "State": "KY", "Country": "USA", "Shape": "Diamond", "Summary": "Zig-zagging set of four lights, one red and two white, that repeatedly conformed into one bright red object above the interstate."}}, {"type": "Feature", "geometry": {"type": "Point", "coordinates": [-85.867893, 37.700408]}, "properties": {"Occurred": "12/20/2003", "City": "Elizabethtown", "State": "KY", "Country": "USA", "Shape": "Light", "Summary": "Unexplained Light over Hardin County."}}, {"type": "Feature", "geometry": {"type": "Point", "coordinates": [-85.867893, 37.700408]}, "properties": {"Occurred": "8/21/2005", "City": "Elizabethtown", "State": "KY", "Country": "USA", "Shape": "Triangle", "Summary": "Took the dog to the bathroom around 3am. Was standing on the deck while the dog did its business. She started barking and looking behin"}}, {"type": "Feature", "geometry": {"type": "Point", "coordinates": [-85.867893, 37.700408]}, "properties": {"Occurred": "12/16/2006", "City": "Elizabethtown", "State": "KY", "Country": "USA", "Shape": "Light", "Summary": "Bright blue almost LED type light transversing the entire distance of the distant sky in 2-3 seconds. ((Missile launch.))"}}, {"type": "Feature", "geometry": {"type": "Point", "coordinates": [-85.867893, 37.700408]}, "properties": {"Occurred": "3/14/2001", "City": "Elizabethtown", "State": "KY", "Country": "USA", "Shape": "Triangle", "Summary": "Woman witnesses triangular, arrowhead-shaped object over home."}}, {"type": "Feature", "geometry": {"type": "Point", "coordinates": [-85.867893, 37.700408]}, "properties": {"Occurred": "11/20/1995", "City": "Elizabethtown", "State": "KY", "Country": "USA", "Shape": "Other", "Summary": "The craft was about 200 feet in the air above the field and an adjacent house."}}, {"type": "Feature", "geometry": {"type": "Point", "coordinates": [-73.591232, 44.216171]}, "properties": {"Occurred": "4/29/1974", "City": "Elizabethtown", "State": "NY", "Country": "USA", "Shape": "Flash", "Summary": "About the size of a satellite traveling unfixed L-shape path w/inconsistent flashing appearing/disappearing inconsistently"}}, {"type": "Feature", "geometry": {"type": "Point", "coordinates": [-76.60245, 40.153022]}, "properties": {"Occurred": "4/26/1953", "City": "Elizabethtown", "State": "PA", "Country": "USA", "Shape": "Fireball", "Summary": "I believe the sighting over Elizabethtown, PA, was a single Chinese lantern."}}, {"type": "Feature", "geometry": {"type": "Point", "coordinates": [-76.60245, 40.153022]}, "properties": {"Occurred": "4/26/1953", "City": "Elizabethtown", "State": "PA", "Country": "USA", "Shape": "Fireball", "Summary": "Single slow moving fireball that changed direction."}}, {"type": "Feature", "geometry": {"type": "Point", "coordinates": [-85.867893, 37.700408]}, "properties": {"Occurred": "4/7/2028", "City": "Elizabethtown", "State": "KY", "Country": "USA", "Shape": "Circle", "Summary": "((HOAX??)) Orange circle moving slow across sky Elizabethtown, KY."}}, {"type": "Feature", "geometry": {"type": "Point", "coordinates": [-85.867893, 37.700408]}, "properties": {"Occurred": "7/4/2018", "City": "Elizabethtown", "State": "KY", "Country": "USA", "Shape": "Triangle", "Summary": "I am a retired member of the U.S. military. I am very familiar with rotary and fixed wing aircraft, what we observed was neither. I was"}}, {"type": "Feature", "geometry": {"type": "Point", "coordinates": [-85.867893, 37.700408]}, "properties": {"Occurred": "8/29/1995", "City": "Elizabethtown", "State": "KY", "Country": "USA", "Shape": "Triangle", "Summary": "Black Triangular shaped craft with 3 pulsating red lights."}}, {"type": "Feature", "geometry": {"type": "Point", "coordinates": [-76.60245, 40.153022]}, "properties": {"Occurred": "2/21/2023", "City": "Elizabethtown", "State": "PA", "Country": "USA", "Shape": "Other", "Summary": "Stationary in sky"}}, {"type": "Feature", "geometry": {"type": "Point", "coordinates": [-85.867893, 37.700408]}, "properties": {"Occurred": "4/13/1965", "City": "Elizabethtown", "State": "KY", "Country": "USA", "Shape": "Light", "Summary": "Red Ball UFO in Elizabethtown, KY in 2013"}}, {"type": "Feature", "geometry": {"type": "Point", "coordinates": [-83.825477, 38.419521]}, "properties": {"Occurred": "6/15/1981", "City": "Elizaville", "State": "KY", "Country": "USA", "Shape": "Other", "Summary": "I was speeding through the town at about 70 MPH, the speed zone was 35 MPH. I looked in the rear view and saw a police car behind my c"}}, {"type": "Feature", "geometry": {"type": "Point", "coordinates": [-117.276603, 48.016286]}, "properties": {"Occurred": "4/22/1974", "City": "Elk", "State": "WA", "Country": "USA", "Shape": "Changing", "Summary": "Me and a few buddies stepped out on our porch at about 3 am. for a cigarette on September 27, 2015. Right away not too far in the dist"}}, {"type": "Feature", "geometry": {"type": "Point", "coordinates": [-117.276603, 48.016286]}, "properties": {"Occurred": "5/1/2004", "City": "Elk", "State": "WA", "Country": "USA", "Shape": "Triangle", "Summary": "Triangles and helicopters give chase"}}, {"type": "Feature", "geometry": {"type": "Point", "coordinates": [-117.276603, 48.016286]}, "properties": {"Occurred": "4/11/1939", "City": "Elk", "State": "WA", "Country": "USA", "Shape": "Formation", "Summary": "Eight very bright red orbs in Northeastern sky in verticle formation."}}, {"type": "Feature", "geometry": {"type": "Point", "coordinates": [-117.276603, 48.016286]}, "properties": {"Occurred": "4/20/1958", "City": "Elk", "State": "WA", "Country": "USA", "Shape": "Fireball", "Summary": "Fireball heading north in Elk, Washington. ((NUFORC Note: Re-entering Chinese 3rd-stage rocket casing. PD))"}}, {"type": "Feature", "geometry": {"type": "Point", "coordinates": [-123.715889, 39.129541]}, "properties": {"Occurred": "12/30/2021", "City": "Elk", "State": "CA", "Country": "USA", "Shape": "Cigar", "Summary": "I was shooting multiple shots of the sunset, last night I was scanning through them and saw an anomaly go up,down, and up again."}}, {"type": "Feature", "geometry": {"type": "Point", "coordinates": [-99.413865, 35.414008]}, "properties": {"Occurred": "4/23/1952", "City": "Elk City", "State": "OK", "Country": "USA", "Shape": "Sphere", "Summary": "Blue light with trail appeared, moved, the disappeared. ((NUFORC Note: Possible meteor?? PD))"}}, {"type": "Feature", "geometry": {"type": "Point", "coordinates": [-99.413865, 35.414008]}, "properties": {"Occurred": "4/27/1962", "City": "Elk City", "State": "OK", "Country": "USA", "Shape": "Light", "Summary": "Singular white light in western sky . West of Elk City. ((NUFORC Note: Venus. PD)) ((anonymous report))"}}, {"type": "Feature", "geometry": {"type": "Point", "coordinates": [-99.413865, 35.414008]}, "properties": {"Occurred": "10/13/2000", "City": "Elk City", "State": "OK", "Country": "USA", "Shape": "Fireball", "Summary": "Fireball's over Elk City"}}, {"type": "Feature", "geometry": {"type": "Point", "coordinates": [-99.413865, 35.414008]}, "properties": {"Occurred": "9/20/2002", "City": "Elk City", "State": "OK", "Country": "USA", "Shape": "Oval", "Summary": "UFO Orb Report"}}, {"type": "Feature", "geometry": {"type": "Point", "coordinates": [-99.413865, 35.414008]}, "properties": {"Occurred": "7/18/2000", "City": "Elk City", "State": "OK", "Country": "USA", "Shape": "Cigar", "Summary": "Simply amazing view of a ufo caught on tape"}}, {"type": "Feature", "geometry": {"type": "Point", "coordinates": [-99.413865, 35.414008]}, "properties": {"Occurred": "3/6/2001", "City": "Elk City", "State": "OK", "Country": "USA", "Shape": "Fireball", "Summary": "Oklahoma fireball"}}, {"type": "Feature", "geometry": {"type": "Point", "coordinates": [-99.413865, 35.414008]}, "properties": {"Occurred": "7/18/2000", "City": "Elk City", "State": "OK", "Country": "USA", "Shape": "Disk", "Summary": "Flying disk that looks silver in color and is moving extremely fast"}}, {"type": "Feature", "geometry": {"type": "Point", "coordinates": [-99.413865, 35.414008]}, "properties": {"Occurred": "4/23/1952", "City": "Elk City", "State": "OK", "Country": "USA", "Shape": "Fireball", "Summary": "Fireball breaking up."}}, {"type": "Feature", "geometry": {"type": "Point", "coordinates": [-99.413865, 35.414008]}, "properties": {"Occurred": "1/25/2002", "City": "Elk City", "State": "OK", "Country": "USA", "Shape": "Cigar", "Summary": "Another sighting in Western Oklahoma"}}, {"type": "Feature", "geometry": {"type": "Point", "coordinates": [-121.371618, 38.408799]}, "properties": {"Occurred": "4/14/1967", "City": "Elk Grove", "State": "CA", "Country": "USA", "Shape": "Orb", "Summary": "Bright star like object moves fast before stopping and immiting bright white light"}}, {"type": "Feature", "geometry": {"type": "Point", "coordinates": [-121.371618, 38.408799]}, "properties": {"Occurred": "4/14/1965", "City": "Elk Grove", "State": "CA", "Country": "USA", "Shape": "Circle", "Summary": "6 bright star like objects moving fast in the night sky"}}, {"type": "Feature", "geometry": {"type": "Point", "coordinates": [-88.01041, 42.032774]}, "properties": {"Occurred": "4/8/1995", "City": "Elk Grove", "State": "IL", "Country": "USA", "Shape": "Formation", "Summary": "Bright lights in the sky changing formations, triangles 500 Lights On Object0: Yes"}}, {"type": "Feature", "geometry": {"type": "Point", "coordinates": [-88.01041, 42.032774]}, "properties": {"Occurred": "8/2/2008", "City": "Elk Grove", "State": "IL", "Country": "USA", "Shape": "Chevron", "Summary": "I saw a chevron shaped metallic craft."}}, {"type": "Feature", "geometry": {"type": "Point", "coordinates": [-121.371618, 38.408799]}, "properties": {"Occurred": "2/17/2018", "City": "Elk Grove", "State": "CA", "Country": "USA", "Shape": "Orb", "Summary": "A group of 11 white orbs moving across the sky in formation staying the same distance away from each other. ((no contact information))"}}, {"type": "Feature", "geometry": {"type": "Point", "coordinates": [-121.371618, 38.408799]}, "properties": {"Occurred": "2/2/2000", "City": "Elk Grove", "State": "CA", "Country": "USA", "Shape": "Other", "Summary": "Large Mechanical Black Widow Measures Brain"}}, {"type": "Feature", "geometry": {"type": "Point", "coordinates": [-121.371618, 38.408799]}, "properties": {"Occurred": "10/21/2007", "City": "Elk Grove", "State": "CA", "Country": "USA", "Shape": "Sphere", "Summary": "Chrome sphere(s) over farmland outside Sacramento California spotted from twin prop passenger aircraft"}}, {"type": "Feature", "geometry": {"type": "Point", "coordinates": [-121.371618, 38.408799]}, "properties": {"Occurred": "4/23/1970", "City": "Elk Grove", "State": "CA", "Country": "USA", "Shape": "Light", "Summary": "6-7 peach-colored craft moving easterly direction. Sacramento area. Midnight 2016 New Years."}}, {"type": "Feature", "geometry": {"type": "Point", "coordinates": [-121.371618, 38.408799]}, "properties": {"Occurred": "4/28/1934", "City": "Elk Grove", "State": "CA", "Country": "USA", "Shape": "Cylinder", "Summary": "Cylinder Object Seen In Elk Grove Sky."}}, {"type": "Feature", "geometry": {"type": "Point", "coordinates": [-121.371618, 38.408799]}, "properties": {"Occurred": "4/16/1986", "City": "Elk Grove", "State": "CA", "Country": "USA", "Shape": "Sphere", "Summary": "Small Orange Sphere seen near Sacramento."}}, {"type": "Feature", "geometry": {"type": "Point", "coordinates": [-121.371618, 38.408799]}, "properties": {"Occurred": "4/13/1986", "City": "Elk Grove", "State": "CA", "Country": "USA", "Shape": "Cigar", "Summary": "A long bodied object hovered in the air over Elk Grove, too high in the sky to be a chopper. The object moved. ((Star??))"}}, {"type": "Feature", "geometry": {"type": "Point", "coordinates": [-121.371618, 38.408799]}, "properties": {"Occurred": "4/28/2006", "City": "Elk Grove", "State": "CA", "Country": "USA", "Shape": "Sphere", "Summary": "Flying with no sound. Appears like a flare because the color disappears but then I was able to see a craft still in the air because of"}}, {"type": "Feature", "geometry": {"type": "Point", "coordinates": [-121.371618, 38.408799]}, "properties": {"Occurred": "4/14/1986", "City": "Elk Grove", "State": "CA", "Country": "USA", "Shape": "Circle", "Summary": "Bright star like circular object shoots across the sky at amazing speed"}}, {"type": "Feature", "geometry": {"type": "Point", "coordinates": [-121.371618, 38.408799]}, "properties": {"Occurred": "4/6/1995", "City": "Elk Grove", "State": "CA", "Country": "USA", "Shape": "Other", "Summary": "I saw a black silent bat-ray shaped object in daylight hours."}}, {"type": "Feature", "geometry": {"type": "Point", "coordinates": [-121.371618, 38.408799]}, "properties": {"Occurred": "10/11/1998", "City": "Elk Grove", "State": "CA", "Country": "USA", "Shape": "Fireball", "Summary": "Greenish blue fireball streaking across horizon"}}, {"type": "Feature", "geometry": {"type": "Point", "coordinates": [-121.371618, 38.408799]}, "properties": {"Occurred": "4/27/1991", "City": "Elk Grove", "State": "CA", "Country": "USA", "Shape": "Orb", "Summary": "Group of orange orbs following each other behind the trees in the southern sky until each seem to turn their lights off and couldn't se"}}, {"type": "Feature", "geometry": {"type": "Point", "coordinates": [-121.371618, 38.408799]}, "properties": {"Occurred": "12/2/2021", "City": "Elk Grove", "State": "CA", "Country": "USA", "Shape": "Other", "Summary": "Parallel lights in east nearly overhead"}}, {"type": "Feature", "geometry": {"type": "Point", "coordinates": [-121.371618, 38.408799]}, "properties": {"Occurred": "4/12/1999", "City": "Elk Grove", "State": "CA", "Country": "USA", "Shape": "Chevron", "Summary": "2 Craft seen in Elk Grove, Ca. Defying inertia and gravity with no sound. Seen by USMC Scout/Sniper."}}, {"type": "Feature", "geometry": {"type": "Point", "coordinates": [-121.371618, 38.408799]}, "properties": {"Occurred": "8/15/1992", "City": "Elk Grove", "State": "CA", "Country": "USA", "Shape": "Other", "Summary": "Lime green trapizoidal light beaming onto back of house from rectangular source above house, physical evidence left."}}, {"type": "Feature", "geometry": {"type": "Point", "coordinates": [-88.01041, 42.032774]}, "properties": {"Occurred": "7/1/2004", "City": "Elk Grove", "State": "IL", "Country": "USA", "Shape": "Other", "Summary": "VERY high altitude dumb-bell shaped UFO"}}, {"type": "Feature", "geometry": {"type": "Point", "coordinates": [-121.371618, 38.408799]}, "properties": {"Occurred": "9/7/2002", "City": "Elk Grove", "State": "CA", "Country": "USA", "Shape": "Light", "Summary": "Red / Orange light in a fixed position"}}, {"type": "Feature", "geometry": {"type": "Point", "coordinates": [-121.371618, 38.408799]}, "properties": {"Occurred": "4/12/1975", "City": "Elk Grove", "State": "CA", "Country": "USA", "Shape": "Orb", "Summary": "3 Orbs Appear Amongst Fireworks"}}, {"type": "Feature", "geometry": {"type": "Point", "coordinates": [-121.371618, 38.408799]}, "properties": {"Occurred": "4/29/1966", "City": "Elk Grove", "State": "CA", "Country": "USA", "Shape": "Changing", "Summary": "Shiny metallic flying object carrying a second green triangle shaped object"}}, {"type": "Feature", "geometry": {"type": "Point", "coordinates": [-121.371618, 38.408799]}, "properties": {"Occurred": "7/26/2019", "City": "Elk Grove", "State": "CA", "Country": "USA", "Shape": "Rectangle", "Summary": "Fast moving large rectangle craft flying North to South over Sacramento, CA, in the night sky"}}, {"type": "Feature", "geometry": {"type": "Point", "coordinates": [-121.371618, 38.408799]}, "properties": {"Occurred": "6/5/1968", "City": "Elk Grove", "State": "CA", "Country": "USA", "Shape": "Oval", "Summary": "They left glowing material all the way to the barn."}}, {"type": "Feature", "geometry": {"type": "Point", "coordinates": [-121.371618, 38.408799]}, "properties": {"Occurred": "4/12/2016", "City": "Elk Grove", "State": "CA", "Country": "USA", "Shape": "Orb", "Summary": "Orange Orbs"}}, {"type": "Feature", "geometry": {"type": "Point", "coordinates": [-121.371618, 38.408799]}, "properties": {"Occurred": "4/10/1962", "City": "Elk Grove", "State": "CA", "Country": "USA", "Shape": "Fireball", "Summary": "Orange ball of light seemed to be floating with green flashing lights"}}, {"type": "Feature", "geometry": {"type": "Point", "coordinates": [-121.371618, 38.408799]}, "properties": {"Occurred": "11/12/2007", "City": "Elk Grove", "State": "CA", "Country": "USA", "Shape": "Other", "Summary": "Arrowhead large silent slow craft with 3 circular rows of Yellow Rectangular lights on top/dark on bottom."}}, {"type": "Feature", "geometry": {"type": "Point", "coordinates": [-121.371618, 38.408799]}, "properties": {"Occurred": "4/25/1955", "City": "Elk Grove", "State": "CA", "Country": "USA", "Shape": "Circle", "Summary": "2 high altitude objects perform amazing maneuvers."}}, {"type": "Feature", "geometry": {"type": "Point", "coordinates": [-121.371618, 38.408799]}, "properties": {"Occurred": "9/7/1999", "City": "Elk Grove", "State": "CA", "Country": "USA", "Shape": "Orb", "Summary": "tracked 10 starlike objects across sky 8 were traveling south to north, 1 traveled west to east and one traveled north to south"}}, {"type": "Feature", "geometry": {"type": "Point", "coordinates": [-121.371618, 38.408799]}, "properties": {"Occurred": "4/14/1959", "City": "Elk Grove", "State": "CA", "Country": "USA", "Shape": "Light", "Summary": "Preface: there are plenty of commercial planes, private planes, military planes and helicopters with Sac Int Airport, military, and sma"}}, {"type": "Feature", "geometry": {"type": "Point", "coordinates": [-121.371618, 38.408799]}, "properties": {"Occurred": "4/26/1990", "City": "Elk Grove", "State": "CA", "Country": "USA", "Shape": "Circle", "Summary": "Strange lights over Central Valley, CA."}}, {"type": "Feature", "geometry": {"type": "Point", "coordinates": [-121.371618, 38.408799]}, "properties": {"Occurred": "4/25/2022", "City": "Elk Grove", "State": "CA", "Country": "USA", "Shape": "Other", "Summary": "06/01/16 1:00pm. Sighted two very large aircraft 1 flying due east to west 2nd due north to south. Both off white, not markings side o"}}, {"type": "Feature", "geometry": {"type": "Point", "coordinates": [-121.371618, 38.408799]}, "properties": {"Occurred": "6/5/2009", "City": "Elk Grove", "State": "CA", "Country": "USA", "Shape": "Other", "Summary": "3 UFOs in Sacramento, Ca. Viewed from Elk Grove, CA. the same night News Air10 Helicopter filmed UFO sighting."}}, {"type": "Feature", "geometry": {"type": "Point", "coordinates": [-121.371618, 38.408799]}, "properties": {"Occurred": "7/30/2023", "City": "Elk Grove", "State": "CA", "Country": "USA", "Shape": "Sphere", "Summary": "White object in totally clear sky. Moving strangely. Not a plane. And not a loose balloon!"}}, {"type": "Feature", "geometry": {"type": "Point", "coordinates": [-121.371618, 38.408799]}, "properties": {"Occurred": "4/28/2006", "City": "Elk Grove", "State": "CA", "Country": "USA", "Shape": "Orb", "Summary": "These orbs or spheres are appearing from the W side of Hood Franklin near I-5 and have been seen for 1 hour. ((anonymous report))"}}, {"type": "Feature", "geometry": {"type": "Point", "coordinates": [-121.371618, 38.408799]}, "properties": {"Occurred": "4/18/2020", "City": "Elk Grove", "State": "CA", "Country": "USA", "Shape": "Circle", "Summary": "Fast moving star like ufo stops its course, lights up bright then shoots straight up."}}, {"type": "Feature", "geometry": {"type": "Point", "coordinates": [-121.371618, 38.408799]}, "properties": {"Occurred": "2/20/1999", "City": "Elk Grove", "State": "CA", "Country": "USA", "Shape": "Teardrop", "Summary": "While waiting in McDonald's drive-thru line, I was looking up at several high, thin stratos clouds against a clear blue sky. I observe"}}, {"type": "Feature", "geometry": {"type": "Point", "coordinates": [-121.371618, 38.408799]}, "properties": {"Occurred": "4/23/2015", "City": "Elk Grove", "State": "CA", "Country": "USA", "Shape": "Sphere", "Summary": "Silent bright object sending out luminous beams and mist in 's' and hourglass shapes.((NUFORC Note: U. S. Navy missile launch. PD))"}}, {"type": "Feature", "geometry": {"type": "Point", "coordinates": [-121.371618, 38.408799]}, "properties": {"Occurred": "11/20/2005", "City": "Elk Grove", "State": "CA", "Country": "USA", "Shape": "Circle", "Summary": "For 20 minutes I viewed a large and thee circles at about 10 am November 20, 2005 above my house.."}}, {"type": "Feature", "geometry": {"type": "Point", "coordinates": [-121.371618, 38.408799]}, "properties": {"Occurred": "4/16/1967", "City": "Elk Grove", "State": "CA", "Country": "USA", "Shape": "Flash", "Summary": "Bright object flashes then shoots across the sky."}}, {"type": "Feature", "geometry": {"type": "Point", "coordinates": [-121.371618, 38.408799]}, "properties": {"Occurred": "9/17/2003", "City": "Elk Grove", "State": "CA", "Country": "USA", "Shape": "Light", "Summary": "I saw a moving star like light in space flash a bright lite at me then turned on spotlight at it and it came back and did it again."}}, {"type": "Feature", "geometry": {"type": "Point", "coordinates": [-121.371618, 38.408799]}, "properties": {"Occurred": "10/29/2023", "City": "Elk Grove", "State": "CA", "Country": "USA", "Shape": "Orb", "Summary": "Two orbs seen floating at a high altitude not moving them slowly moving and then dissipating"}}, {"type": "Feature", "geometry": {"type": "Point", "coordinates": [-121.371618, 38.408799]}, "properties": {"Occurred": "4/7/2028", "City": "Elk Grove", "State": "CA", "Country": "USA", "Shape": "Circle", "Summary": "Four round, lit craft flyhing in a low, v formation over Elk Grove, Ca."}}, {"type": "Feature", "geometry": {"type": "Point", "coordinates": [-87.941461, 42.008798]}, "properties": {"Occurred": "11/28/2008", "City": "Elk Grove Village", "State": "IL", "Country": "USA", "Shape": "Orb", "Summary": "Two Unusual Orbs of Light Spotted Just Above Antenna at Elk Grove Village, IL. ((NUFORC Note: Venus and Jupiter. PD))"}}, {"type": "Feature", "geometry": {"type": "Point", "coordinates": [-87.941461, 42.008798]}, "properties": {"Occurred": "9/29/2002", "City": "Elk Grove Village", "State": "IL", "Country": "USA", "Shape": "Teardrop", "Summary": "Orange tear drop craft flying in the west."}}, {"type": "Feature", "geometry": {"type": "Point", "coordinates": [-87.941461, 42.008798]}, "properties": {"Occurred": "4/23/1981", "City": "Elk Grove Village", "State": "IL", "Country": "USA", "Shape": "Cigar", "Summary": "I was outside with my boyfriend on our back patio. I live right next to airport so I'm used to seeing lots of lights and airplanes and"}}, {"type": "Feature", "geometry": {"type": "Point", "coordinates": [-87.941461, 42.008798]}, "properties": {"Occurred": "4/10/1948", "City": "Elk Grove Village", "State": "IL", "Country": "USA", "Shape": "Fireball", "Summary": "As I was driving down Mecham Blvd headed toward Biesterfield Rd I saw orange glowing lights flying overhead. I pulled over and counted"}}, {"type": "Feature", "geometry": {"type": "Point", "coordinates": [-87.941461, 42.008798]}, "properties": {"Occurred": "4/18/2025", "City": "Elk Grove Village", "State": "IL", "Country": "USA", "Shape": "Circle", "Summary": "07-05-2014 red glowing circles."}}, {"type": "Feature", "geometry": {"type": "Point", "coordinates": [-87.941461, 42.008798]}, "properties": {"Occurred": "4/4/1957", "City": "Elk Grove Village", "State": "IL", "Country": "USA", "Shape": "Circle", "Summary": "Traveling towards O'Hare/Chicago, Huge Low Flying 3 Tiered Inverted Triangle Flying Objects"}}, {"type": "Feature", "geometry": {"type": "Point", "coordinates": [-75.826049, 39.658723]}, "properties": {"Occurred": "4/15/2017", "City": "Elk Mills", "State": "MD", "Country": "USA", "Shape": "Formation", "Summary": "Orange orbs or floating lights in sky over Elkton, MD"}}, {"type": "Feature", "geometry": {"type": "Point", "coordinates": [-112.372237, 46.164928]}, "properties": {"Occurred": "11/22/2005", "City": "Elk Park", "State": "MT", "Country": "USA", "Shape": "Triangle", "Summary": "Two triangle shaped craft spotted over Elk Park, Montana."}}, {"type": "Feature", "geometry": {"type": "Point", "coordinates": [-112.372237, 46.164928]}, "properties": {"Occurred": "6/13/2005", "City": "Elk Park", "State": "MT", "Country": "USA", "Shape": "Triangle", "Summary": "Silver triangle shaped crafts hovering in a formation"}}, {"type": "Feature", "geometry": {"type": "Point", "coordinates": [-81.978172, 36.157346]}, "properties": {"Occurred": "3/27/2021", "City": "Elk Park", "State": "NC", "Country": "USA", "Shape": "Triangle", "Summary": "Huge triangle craft hovering silently 40 ft. above highway 19-E. 6 witnesses, craft seemed to be aware of our presence."}}, {"type": "Feature", "geometry": {"type": "Point", "coordinates": [-93.567182, 45.303854]}, "properties": {"Occurred": "4/27/1950", "City": "Elk River", "State": "MN", "Country": "USA", "Shape": "Oval", "Summary": "Witnessed by my wife, myself, and neighbor - bright white light, blue, red. much larger than any stars - stationary."}}, {"type": "Feature", "geometry": {"type": "Point", "coordinates": [-93.567182, 45.303854]}, "properties": {"Occurred": "6/30/2022", "City": "Elk River", "State": "MN", "Country": "USA", "Shape": "Light", "Summary": "2 red/orange lights appear out of nowhere, interact, turn, fly away"}}, {"type": "Feature", "geometry": {"type": "Point", "coordinates": [-93.567182, 45.303854]}, "properties": {"Occurred": "4/28/1989", "City": "Elk River", "State": "MN", "Country": "USA", "Shape": "Fireball", "Summary": "\"Fireball\" ufo sighted over west edge of Elk River, MN, for 4-5 minutes starting at 11:20PM on June 3rd, 2017."}}, {"type": "Feature", "geometry": {"type": "Point", "coordinates": [-93.567182, 45.303854]}, "properties": {"Occurred": "4/16/1939", "City": "Elk River", "State": "MN", "Country": "USA", "Shape": "Sphere", "Summary": "Two red pulsating spheres traveling in offset formation."}}, {"type": "Feature", "geometry": {"type": "Point", "coordinates": [-93.567182, 45.303854]}, "properties": {"Occurred": "7/6/2007", "City": "Elk River", "State": "MN", "Country": "USA", "Shape": "Light", "Summary": "((HOAX??)) I saw fast ball of lite moveing allmost as if it was tracing the big dipper."}}, {"type": "Feature", "geometry": {"type": "Point", "coordinates": [-93.567182, 45.303854]}, "properties": {"Occurred": "7/1/1991", "City": "Elk River", "State": "MN", "Country": "USA", "Shape": "Orb", "Summary": "Basketball sized orb of light, burst with intensity after about 2 minutes then disappeared."}}, {"type": "Feature", "geometry": {"type": "Point", "coordinates": [-93.567182, 45.303854]}, "properties": {"Occurred": "4/30/1970", "City": "Elk River", "State": "MN", "Country": "USA", "Shape": "Formation", "Summary": "8 or more lights in formation flying slowly into the diatance."}}, {"type": "Feature", "geometry": {"type": "Point", "coordinates": [-93.567182, 45.303854]}, "properties": {"Occurred": "8/24/1997", "City": "Elk River", "State": "MN", "Country": "USA", "Shape": "Triangle", "Summary": "it was three green lights in the shape of a tryangle and this took place at night, and these 3 lights flashed and then it moved to a d"}}, {"type": "Feature", "geometry": {"type": "Point", "coordinates": [-93.567182, 45.303854]}, "properties": {"Occurred": "4/12/2020", "City": "Elk River", "State": "MN", "Country": "USA", "Shape": "Orb", "Summary": "Was driving home towards Elk River from St.Paul area around a quarter to 11pm.We are currently under \"Shelter in Place\" order"}}, {"type": "Feature", "geometry": {"type": "Point", "coordinates": [-93.567182, 45.303854]}, "properties": {"Occurred": "4/20/1935", "City": "Elk River", "State": "MN", "Country": "USA", "Shape": "Disk", "Summary": "Red green lights changing back and forth would hover and like bouncing movements."}}, {"type": "Feature", "geometry": {"type": "Point", "coordinates": [-93.567182, 45.303854]}, "properties": {"Occurred": "4/10/1938", "City": "Elk River", "State": "MN", "Country": "USA", "Shape": "Cross", "Summary": "Clear, sunny afternoon, no clouds. Was outside doing yard work and looked up to see a white jet flying south over the house, leaving a"}}, {"type": "Feature", "geometry": {"type": "Point", "coordinates": [-91.404092, 42.854533]}, "properties": {"Occurred": "3/17/1992", "City": "Elkader", "State": "IA", "Country": "USA", "Shape": "Other", "Summary": "What I and my wife seen that night on are way home from a night out. It wasn't anything from man, and it's not new to me. It was a cume"}}, {"type": "Feature", "geometry": {"type": "Point", "coordinates": [-85.976667, 41.681994]}, "properties": {"Occurred": "12/22/2019", "City": "Elkhart", "State": "IN", "Country": "USA", "Shape": "Light", "Summary": "I saw a line of lights going across the sky in single file heading in the same direction. ((Starlink satellites?))"}}, {"type": "Feature", "geometry": {"type": "Point", "coordinates": [-85.976667, 41.681994]}, "properties": {"Occurred": "9/19/2020", "City": "Elkhart", "State": "IN", "Country": "USA", "Shape": "Light", "Summary": "I was watching out the window for daughter to come home from her date and seen a large, bright streak of light flash in the sky. It wa"}}, {"type": "Feature", "geometry": {"type": "Point", "coordinates": [-85.976667, 41.681994]}, "properties": {"Occurred": "4/14/1960", "City": "Elkhart", "State": "IN", "Country": "USA", "Shape": "Fireball", "Summary": "object was bright red , and looked like a ball fire. Then slowly got lighter and looked like a start then completely vanished"}}, {"type": "Feature", "geometry": {"type": "Point", "coordinates": [-85.976667, 41.681994]}, "properties": {"Occurred": "4/6/2021", "City": "Elkhart", "State": "IN", "Country": "USA", "Shape": "Sphere", "Summary": "Seven sphereshaped objects on fire Elkhart Indiana 3/19/2011"}}, {"type": "Feature", "geometry": {"type": "Point", "coordinates": [-85.976667, 41.681994]}, "properties": {"Occurred": "4/22/1953", "City": "Elkhart", "State": "IN", "Country": "USA", "Shape": "Light", "Summary": "Red lights in 2 different groups..first 4..then 3 more..raising up from low altitude in east Elkhart..heading north from prox sr20 @cre"}}, {"type": "Feature", "geometry": {"type": "Point", "coordinates": [-85.976667, 41.681994]}, "properties": {"Occurred": "4/11/1961", "City": "Elkhart", "State": "IN", "Country": "USA", "Shape": "Oval", "Summary": "It was the night of sept 9 between 9 and 10 pm we were all outside talking and visiting and my mom was on the phone with my cousin and"}}, {"type": "Feature", "geometry": {"type": "Point", "coordinates": [-85.976667, 41.681994]}, "properties": {"Occurred": "4/3/1962", "City": "Elkhart", "State": "IN", "Country": "USA", "Shape": "Circle", "Summary": "A ship came down hovered there flew over head then zipped straight up."}}, {"type": "Feature", "geometry": {"type": "Point", "coordinates": [-85.976667, 41.681994]}, "properties": {"Occurred": "1/28/2007", "City": "Elkhart", "State": "IN", "Country": "USA", "Shape": "Other", "Summary": "Random lights at low altitude taking shape of triangle."}}, {"type": "Feature", "geometry": {"type": "Point", "coordinates": [-85.976667, 41.681994]}, "properties": {"Occurred": "4/21/1989", "City": "Elkhart", "State": "IN", "Country": "USA", "Shape": "Sphere", "Summary": "UFO observing 4th of July activity."}}, {"type": "Feature", "geometry": {"type": "Point", "coordinates": [-85.976667, 41.681994]}, "properties": {"Occurred": "4/11/2017", "City": "Elkhart", "State": "IN", "Country": "USA", "Shape": "Orb", "Summary": "Bright orange spinning sphere with smaller sphere circling it that sped off into the moon"}}, {"type": "Feature", "geometry": {"type": "Point", "coordinates": [-85.976667, 41.681994]}, "properties": {"Occurred": "1/3/2009", "City": "Elkhart", "State": "IN", "Country": "USA", "Shape": "Diamond", "Summary": "A red red sphere folllowing a blinking diamond shaped thing."}}, {"type": "Feature", "geometry": {"type": "Point", "coordinates": [-85.976667, 41.681994]}, "properties": {"Occurred": "3/4/2007", "City": "Elkhart", "State": "IN", "Country": "USA", "Shape": "Light", "Summary": "decending ball of bright yellowish light that suddenly disappeared just above the horizon on a clear night. ((Meteor??))"}}, {"type": "Feature", "geometry": {"type": "Point", "coordinates": [-85.976667, 41.681994]}, "properties": {"Occurred": "7/6/1998", "City": "Elkhart", "State": "IN", "Country": "USA", "Shape": "Cigar", "Summary": "Silver Cigar-Shaped Object, Elkhart, IN,"}}, {"type": "Feature", "geometry": {"type": "Point", "coordinates": [-85.976667, 41.681994]}, "properties": {"Occurred": "7/3/2008", "City": "Elkhart", "State": "IN", "Country": "USA", "Shape": "Oval", "Summary": "Craft with a steady orange light moved to the SSE before disappearing"}}, {"type": "Feature", "geometry": {"type": "Point", "coordinates": [-85.976667, 41.681994]}, "properties": {"Occurred": "4/6/2021", "City": "Elkhart", "State": "IN", "Country": "USA", "Shape": "Fireball", "Summary": "Seven balls of fire spaced perfectly all vanished at a certain point"}}, {"type": "Feature", "geometry": {"type": "Point", "coordinates": [-85.976667, 41.681994]}, "properties": {"Occurred": "4/14/1932", "City": "Elkhart", "State": "IN", "Country": "USA", "Shape": "Fireball", "Summary": "7 fireballs in a row in the southern skies at 1:30 am."}}, {"type": "Feature", "geometry": {"type": "Point", "coordinates": [-85.976667, 41.681994]}, "properties": {"Occurred": "6/1/1940", "City": "Elkhart", "State": "IN", "Country": "USA", "Shape": "Formation", "Summary": "Before WW2, June or July of 1940, there was an amazing phenomona about 9 or 10 at night, when the sky had a large illuminated circle."}}, {"type": "Feature", "geometry": {"type": "Point", "coordinates": [-85.976667, 41.681994]}, "properties": {"Occurred": "6/8/1999", "City": "Elkhart", "State": "IN", "Country": "USA", "Shape": "Light", "Summary": "From latitude 41.682 longitude -85.977 looking SSE ~63\u00b0 stationary object moved very slowly NNE. Could not make out shape using binocul"}}, {"type": "Feature", "geometry": {"type": "Point", "coordinates": [-85.976667, 41.681994]}, "properties": {"Occurred": "4/21/1960", "City": "Elkhart", "State": "IN", "Country": "USA", "Shape": "Cigar", "Summary": "In the back yard of a buddies house throwing horse shoes (by myself while waiting for my friend to finish cutting 2 other friends hair)"}}, {"type": "Feature", "geometry": {"type": "Point", "coordinates": [-95.579398, 31.625175]}, "properties": {"Occurred": "4/8/1949", "City": "Elkhart", "State": "TX", "Country": "USA", "Shape": "Light", "Summary": "Strange red lights in southern Anderson county over a period of three weeks observed by at least 6 people."}}, {"type": "Feature", "geometry": {"type": "Point", "coordinates": [-101.89733, 37.002764]}, "properties": {"Occurred": "6/7/2000", "City": "Elkhart", "State": "KS", "Country": "USA", "Shape": "Circle", "Summary": "was sitting on my front porch with granddaughter when3 lights appeared above some trees"}}, {"type": "Feature", "geometry": {"type": "Point", "coordinates": [-85.976667, 41.681994]}, "properties": {"Occurred": "5/15/1994", "City": "Elkhart", "State": "IN", "Country": "USA", "Shape": "Sphere", "Summary": "I saw 6 spherical objects, silver or chrome in color. They were circling around eachother very close and at a high rate of speed."}}, {"type": "Feature", "geometry": {"type": "Point", "coordinates": [-88.017896, 43.833325]}, "properties": {"Occurred": "4/29/2022", "City": "Elkhart Lake", "State": "WI", "Country": "USA", "Shape": "Light", "Summary": "Silent flashing sporadic moving white light. ((anonymous report))"}}, {"type": "Feature", "geometry": {"type": "Point", "coordinates": [-88.543494, 42.671921]}, "properties": {"Occurred": "4/7/1988", "City": "Elkhorn", "State": "WI", "Country": "USA", "Shape": "Other", "Summary": "Flying orange ball of light traveling south."}}, {"type": "Feature", "geometry": {"type": "Point", "coordinates": [-88.543494, 42.671921]}, "properties": {"Occurred": "4/11/1946", "City": "Elkhorn", "State": "WI", "Country": "USA", "Shape": "Light", "Summary": "West to East. Slow moving. Humming sound. Bright red light."}}, {"type": "Feature", "geometry": {"type": "Point", "coordinates": [-88.543494, 42.671921]}, "properties": {"Occurred": "4/19/1963", "City": "Elkhorn", "State": "WI", "Country": "USA", "Shape": "Formation", "Summary": "Light formation in the sky for 30 minutes in Southeastern Wisconsin"}}, {"type": "Feature", "geometry": {"type": "Point", "coordinates": [-88.543494, 42.671921]}, "properties": {"Occurred": "4/18/1982", "City": "Elkhorn", "State": "WI", "Country": "USA", "Shape": "Fireball", "Summary": "Red flickering light heading north from Elkhorn Wisconsin."}}, {"type": "Feature", "geometry": {"type": "Point", "coordinates": [-88.543494, 42.671921]}, "properties": {"Occurred": "4/21/1987", "City": "Elkhorn", "State": "WI", "Country": "USA", "Shape": "Orb", "Summary": "Orange and red orbiting light, soundless, not fireworks. Stood still high in the sky. The \"craft\" lights spun around"}}, {"type": "Feature", "geometry": {"type": "Point", "coordinates": [-88.543494, 42.671921]}, "properties": {"Occurred": "4/27/1933", "City": "Elkhorn", "State": "WI", "Country": "USA", "Shape": "Triangle", "Summary": "Large v-shaped stationary craft with several white non flashing lights"}}, {"type": "Feature", "geometry": {"type": "Point", "coordinates": [-88.543494, 42.671921]}, "properties": {"Occurred": "4/12/1955", "City": "Elkhorn", "State": "WI", "Country": "USA", "Shape": "Other", "Summary": "Round object flashing different colors. ((NUFORC Note: We strongly suspect the witness was observing the star, Sirius. PD))"}},